{"Edinburgh, United Kingdom": [{"place_id": "110900", "licence": "https://locationiq.com/attribution", "osm_type": "node", "osm_id": "17898859", "boundingbox": ["55.793346", "56.113346", "-3.3483739", "-3.0283739"], "lat": "55.953346", "lon": "-3.1883739", "display_name": "Edinburgh, City of Edinburgh, Scotland, EH1 3EG, United Kingdom", "class": "place", "type": "city", "importance": 1.0097057390627, "icon": "https://locationiq.org/static/images/mapicons/poi_place_city.p.20.png"}, {"place_id": "132718722", "licence": "https://locationiq.com/attribution", "osm_type": "way", "osm_id": "225997712", "boundingbox": ["55.951903", "55.9525064", "-3.1893158", "-3.1880055"], "lat": "55.9522314", "lon": "-3.18867390020952", "display_name": "Edinburgh Waverley, North Bridge, Old Town, Edinburgh, City of Edinburgh, Scotland, EH1 1YT, United Kingdom", "class": "railway", "type": "station", "importance": 0.755262970359, "icon": "https://locationiq.org/static/images/mapicons/transport_train_station2.p.20.png"}, {"place_id": "642071", "licence": "https://locationiq.com/attribution", "osm_type": "node", "osm_id": "245010372", "boundingbox": ["53.3996028", "53.3997028", "-2.9218942", "-2.9217942"], "lat": "53.3996528", "lon": "-2.9218442", "display_name": "The Edinburgh, Orford Street, Wavertree, Liverpool, North West England, England, L15, United Kingdom", "class": "amenity", "type": "pub", "importance": 0.301, "icon": "https://locationiq.org/static/images/mapicons/food_pub.p.20.png"}, {"place_id": "4031107", "licence": "https://locationiq.com/attribution", "osm_type": "node", "osm_id": "457722234", "boundingbox": ["53.4851493", "53.4852493", "-3.0318708", "-3.0317708"], "lat": "53.4851993", "lon": "-3.0318208", "display_name": "The Edinburgh, Jubilee Road, Brighton le Sands, Sefton, North West England, England, L23 3BD, United Kingdom", "class": "amenity", "type": "pub", "importance": 0.301, "icon": "https://locationiq.org/static/images/mapicons/food_pub.p.20.png"}, {"place_id": "115607759", "licence": "https://locationiq.com/attribution", "osm_type": "way", "osm_id": "158005341", "boundingbox": ["52.19286", "52.1930993", "-1.7053986", "-1.705201"], "lat": "52.19297535", "lon": "-1.70530616139523", "display_name": "the edinburgh, Bridge Street, Stratford-upon-Avon, Stratford-on-Avon, Warwickshire, West Midlands, England, CV37 6AH, United Kingdom", "class": "building", "type": "yes", "importance": 0.301}, {"place_id": "164236860", "licence": "https://locationiq.com/attribution", "osm_type": "way", "osm_id": "377056423", "boundingbox": ["51.5505332", "51.5506662", "-0.0866113", "-0.0863727"], "lat": "51.55058485", "lon": "-0.0864908764122806", "display_name": "The Cellars, 125, Newington Green Road, Mildmay Park, Ball's Pond, London Borough of Islington, London, Greater London, England, N1 4RA, United Kingdom", "class": "amenity", "type": "pub", "importance": 0.201, "icon": "https://locationiq.org/static/images/mapicons/food_pub.p.20.png"}], "Edinburgh, Scotland...": [{"place_id": "110900", "licence": "https://locationiq.com/attribution", "osm_type": "node", "osm_id": "17898859", "boundingbox": ["55.793346", "56.113346", "-3.3483739", "-3.0283739"], "lat": "55.953346", "lon": "-3.1883739", "display_name": "Edinburgh, City of Edinburgh, Scotland, EH1 3EG, United Kingdom", "class": "place", "type": "city", "importance": 0.91970573906268, "icon": "https://locationiq.org/static/images/mapicons/poi_place_city.p.20.png"}, {"place_id": "132718722", "licence": "https://locationiq.com/attribution", "osm_type": "way", "osm_id": "225997712", "boundingbox": ["55.951903", "55.9525064", "-3.1893158", "-3.1880055"], "lat": "55.9522314", "lon": "-3.18867390020952", "display_name": "Edinburgh Waverley, North Bridge, Old Town, Edinburgh, City of Edinburgh, Scotland, EH1 1YT, United Kingdom", "class": "railway", "type": "station", "importance": 0.665262970359, "icon": "https://locationiq.org/static/images/mapicons/transport_train_station2.p.20.png"}], "Embra, Scotland": [{"place_id": "110900", "licence": "https://locationiq.com/attribution", "osm_type": "node", "osm_id": "17898859", "boundingbox": ["55.793346", "56.113346", "-3.3483739", "-3.0283739"], "lat": "55.953346", "lon": "-3.1883739", "display_name": "Edinburgh, City of Edinburgh, Scotland, EH1 3EG, United Kingdom", "class": "place", "type": "city", "importance": 0.80970573906268, "icon": "https://locationiq.org/static/images/mapicons/poi_place_city.p.20.png"}], "Dunfermline, Scotland.": [{"place_id": "178992192", "licence": "https://locationiq.com/attribution", "osm_type": "way", "osm_id": "459086413", "boundingbox": ["56.0442987", "56.0881674", "-3.5032446", "-3.3868796"], "lat": "56.0713724", "lon": "-3.4616183", "display_name": "Dunfermline, Fife, Scotland, United Kingdom", "class": "place", "type": "town", "importance": 0.70881080864563, "icon": "https://locationiq.org/static/images/mapicons/poi_place_town.p.20.png"}, {"place_id": "1205968", "licence": "https://locationiq.com/attribution", "osm_type": "node", "osm_id": "297329517", "boundingbox": ["55.8620171", "55.8621171", "-4.0347723", "-4.0346723"], "lat": "55.8620671", "lon": "-4.0347223", "display_name": "Dunfermline, Academy Street, Sunnyside, Gartsherrie, Coatbridge, North Lanarkshire, Scotland, ML5, United Kingdom", "class": "amenity", "type": "bank", "importance": 0.221, "icon": "https://locationiq.org/static/images/mapicons/money_bank2.p.20.png"}], "Gloucestershire, England": [{"place_id": "208876233", "licence": "https://locationiq.com/attribution", "osm_type": "relation", "osm_id": "85103", "boundingbox": ["51.5775306", "52.1125797", "-2.6875372", "-1.615202"], "lat": "51.8333313", "lon": "-2.1666674", "display_name": "Gloucestershire, South West England, England, United Kingdom", "class": "boundary", "type": "administrative", "importance": 0.8298861403114, "icon": "https://locationiq.org/static/images/mapicons/poi_boundary_administrative.p.20.png"}, {"place_id": "209211314", "licence": "https://locationiq.com/attribution", "osm_type": "relation", "osm_id": "2700308", "boundingbox": ["51.4159055", "52.1125797", "-2.7106969", "-1.615202"], "lat": "51.7643786", "lon": "-2.18806618387194", "display_name": "Gloucestershire, Slad Road, Painswick, Stroud, Gloucestershire, South West England, England, GL6 7QA, United Kingdom", "class": "boundary", "type": "ceremonial", "importance": 0.221}], "Wiltshire, UK": [{"place_id": "208870812", "licence": "https://locationiq.com/attribution", "osm_type": "relation", "osm_id": "57533", "boundingbox": ["50.9449859", "51.7031417", "-2.3655986", "-1.4857262"], "lat": "51.25", "lon": "-1.916667", "display_name": "Wiltshire, South West England, England, United Kingdom", "class": "boundary", "type": "administrative", "importance": 0.73097558382515, "icon": "https://locationiq.org/static/images/mapicons/poi_boundary_administrative.p.20.png"}, {"place_id": "209210576", "licence": "https://locationiq.com/attribution", "osm_type": "relation", "osm_id": "2694420", "boundingbox": ["50.9449859", "51.7031417", "-2.3655986", "-1.4857262"], "lat": "51.324162", "lon": "-1.90324866990022", "display_name": "Wiltshire, Woodland Road, Patney, Wiltshire, South West England, England, SN10 3QZ, United Kingdom", "class": "boundary", "type": "ceremonial", "importance": 0.111}, {"place_id": "209945587", "licence": "https://locationiq.com/attribution", "osm_type": "relation", "osm_id": "8495487", "boundingbox": ["50.9172357", "51.7061702", "-2.3634632", "-1.4857262"], "lat": "51.3116763", "lon": "-1.93131716466775", "display_name": "Wiltshire, B3098, Urchfont, Wedhampton, Wiltshire, South West England, England, SN10 3PX, United Kingdom", "class": "boundary", "type": "traditional", "importance": 0.111}], "Swindon Wiltshire": [{"place_id": "110022", "licence": "https://locationiq.com/attribution", "osm_type": "node", "osm_id": "15703170", "boundingbox": ["51.5213683", "51.6013683", "-1.8256853", "-1.7456853"], "lat": "51.5613683", "lon": "-1.7856853", "display_name": "Swindon, South West England, England, SN1 1JZ, United Kingdom", "class": "place", "type": "town", "importance": 0.62921333427724, "icon": "https://locationiq.org/static/images/mapicons/poi_place_town.p.20.png"}], "Wilts, UK": [{"place_id": "159310906", "licence": "https://locationiq.com/attribution", "osm_type": "way", "osm_id": "351674965", "boundingbox": ["52.5018559", "52.502264", "-1.8755222", "-1.8748758"], "lat": "52.5020636", "lon": "-1.87520029098409", "display_name": "Wilts, Lichfield Road, Digbeth, Birmingham, West Midlands Combined Authority, West Midlands, England, B6 5SN, United Kingdom", "class": "building", "type": "yes", "importance": 0.111}, {"place_id": "22507450", "licence": "https://locationiq.com/attribution", "osm_type": "node", "osm_id": "2273086369", "boundingbox": ["51.367111", "51.367211", "-0.1021814", "-0.1020814"], "lat": "51.367161", "lon": "-0.1021314", "display_name": "Wilts, Southbridge Road, Waddon, London Borough of Croydon, London, Greater London, England, CR0 1AE, United Kingdom", "class": "shop", "type": "vacant", "importance": 0.111}, {"place_id": "108765448", "licence": "https://locationiq.com/attribution", "osm_type": "way", "osm_id": "128525827", "boundingbox": ["51.4552507", "51.4555145", "-2.580275", "-2.5798016"], "lat": "51.4553945", "lon": "-2.58003893896824", "display_name": "Wilts, Unity Street, The Dings, Old Market, Bristol, City of Bristol, South West England, England, BS2, United Kingdom", "class": "shop", "type": "electronics", "importance": 0.111}], "Gloucestershire": [{"place_id": "208876233", "licence": "https://locationiq.com/attribution", "osm_type": "relation", "osm_id": "85103", "boundingbox": ["51.5775306", "52.1125797", "-2.6875372", "-1.615202"], "lat": "51.8333313", "lon": "-2.1666674", "display_name": "Gloucestershire, South West England, England, United Kingdom", "class": "boundary", "type": "administrative", "importance": 0.7198861403114, "icon": "https://locationiq.org/static/images/mapicons/poi_boundary_administrative.p.20.png"}, {"place_id": "209211314", "licence": "https://locationiq.com/attribution", "osm_type": "relation", "osm_id": "2700308", "boundingbox": ["51.4159055", "52.1125797", "-2.7106969", "-1.615202"], "lat": "51.7643786", "lon": "-2.18806618387194", "display_name": "Gloucestershire, Slad Road, Painswick, Stroud, Gloucestershire, South West England, England, GL6 7QA, United Kingdom", "class": "boundary", "type": "ceremonial", "importance": 0.111}, {"place_id": "163011140", "licence": "https://locationiq.com/attribution", "osm_type": "way", "osm_id": "371389312", "boundingbox": ["18.4863464", "18.4867479", "-77.9287643", "-77.9284559"], "lat": "18.4865079", "lon": "-77.9285896091897", "display_name": "The Gloucestershire, Gloucester Avenue, Montego Bay, Saint James, Cornwall County, 33068, Jamaica", "class": "tourism", "type": "hotel", "importance": 0.101, "icon": "https://locationiq.org/static/images/mapicons/accommodation_hotel2.p.20.png"}], "South Coast of England": [{"place_id": "332133046611", "osm_type": "way", "osm_id": "66662037", "licence": "https://locationiq.com/attribution", "lat": "50.935546", "lon": "-1.392848", "display_name": "South of England Cochlear Implant Centre, Southampton, City of Southampton, Hampshire, United Kingdom", "boundingbox": ["50.9353713", "50.9357213", "-1.3931393", "-1.3925573"], "importance": 0.169}, {"place_id": "332710851375", "licence": "https://locationiq.com/attribution", "lat": "41.38204", "lon": "-73.46707", "display_name": "Military Museum of Southern New England, Danbury, Fairfield County, Connecticut, United States", "boundingbox": ["-29.956109", "51.7302902", "-79.01198", "30.956926"], "importance": 0.169}, {"place_id": "333847957354", "osm_type": "way", "osm_id": "26160926", "licence": "https://locationiq.com/attribution", "lat": "51.054882", "lon": "-0.088868", "display_name": "Ardingly Showground, Ardingly, West Sussex, West Sussex, United Kingdom", "boundingbox": ["51.0514579", "51.0612759", "-0.0967433", "-0.0800372"], "importance": 0.169}, {"place_id": "333239083500", "osm_type": "way", "osm_id": "385998389", "licence": "https://locationiq.com/attribution", "lat": "51.154108", "lon": "0.2542", "display_name": "Southborough Church of England Primary School, Broomhill Park Road, Royal Tunbridge Wells, Kent, Kent, United Kingdom, TN4 0JY", "boundingbox": ["51.153438", "51.1551478", "0.2531872", "0.2553035"], "importance": 0.169}, {"place_id": "330847990099", "osm_type": "way", "osm_id": "391244589", "licence": "https://locationiq.com/attribution", "lat": "51.730057", "lon": "-1.709982", "display_name": "Southrop Church of England Primary School, Southrop, Gloucestershire, Gloucestershire, United Kingdom, GL7 3NU", "boundingbox": ["51.7298523", "51.7302902", "-1.7102625", "-1.7097622"], "importance": 0.169}, {"place_id": "333590060845", "osm_type": "way", "osm_id": "22679507", "licence": "https://locationiq.com/attribution", "lat": "-29.946054", "lon": "30.956236", "display_name": "South Coast S Off-ramp, eThekwini, Kwazulu-Natal, South Africa", "boundingbox": ["-29.946974", "-29.94516", "30.955593", "30.956926"], "importance": 0.16875}, {"place_id": "330868077054", "licence": "https://locationiq.com/attribution", "lat": "-29.956109", "lon": "30.946776", "display_name": "1637B, South Coast S Offramp, eThekwini, Kwazulu-Natal, South Africa", "boundingbox": ["-29.956109", "51.7302902", "-79.01198", "30.956926"], "importance": 0.16875}, {"place_id": "332039725312", "licence": "https://locationiq.com/attribution", "lat": "-29.956099", "lon": "30.946144", "display_name": "1637A, South Coast S Offramp, eThekwini, Kwazulu-Natal, South Africa", "boundingbox": ["-29.956109", "51.7302902", "-79.01198", "30.956926"], "importance": 0.16875}, {"place_id": "333405765430", "licence": "https://locationiq.com/attribution", "lat": "33.79378", "lon": "-79.01198", "display_name": "University of South Carolina-Coastal Carolina College, Conway, Horry County, South Carolina, United States", "boundingbox": ["-29.956109", "51.7302902", "-79.01198", "30.956926"], "importance": 0.16875}, {"place_id": "334162840456", "osm_type": "way", "osm_id": "22679508", "licence": "https://locationiq.com/attribution", "lat": "-29.947501", "lon": "30.954411", "display_name": "South Coast N Off-ramp, eThekwini, Kwazulu-Natal, South Africa", "boundingbox": ["-29.94838", "-29.946602", "30.953733", "30.955053"], "importance": 0.16275}], "Devizes, England": [{"place_id": "125913", "licence": "https://locationiq.com/attribution", "osm_type": "node", "osm_id": "26015407", "boundingbox": ["51.3125027", "51.3925027", "-2.0358302", "-1.9558302"], "lat": "51.3525027", "lon": "-1.9958302", "display_name": "Devizes, Wiltshire, South West England, England, SN10, United Kingdom", "class": "place", "type": "town", "importance": 0.67441371844253, "icon": "https://locationiq.org/static/images/mapicons/poi_place_town.p.20.png"}, {"place_id": "209301596", "licence": "https://locationiq.com/attribution", "osm_type": "relation", "osm_id": "3404438", "boundingbox": ["51.3330434", "51.3851406", "-2.0258802", "-1.9632678"], "lat": "51.35911515", "lon": "-1.98293736412929", "display_name": "Devizes, Roundway, Wiltshire, South West England, England, United Kingdom", "class": "boundary", "type": "administrative", "importance": 0.47, "icon": "https://locationiq.org/static/images/mapicons/poi_boundary_administrative.p.20.png"}], "Gloucestershire UK": [{"place_id": "208876233", "licence": "https://locationiq.com/attribution", "osm_type": "relation", "osm_id": "85103", "boundingbox": ["51.5775306", "52.1125797", "-2.6875372", "-1.615202"], "lat": "51.8333313", "lon": "-2.1666674", "display_name": "Gloucestershire, South West England, England, United Kingdom", "class": "boundary", "type": "administrative", "importance": 0.7198861403114, "icon": "https://locationiq.org/static/images/mapicons/poi_boundary_administrative.p.20.png"}, {"place_id": "209211314", "licence": "https://locationiq.com/attribution", "osm_type": "relation", "osm_id": "2700308", "boundingbox": ["51.4159055", "52.1125797", "-2.7106969", "-1.615202"], "lat": "51.7643786", "lon": "-2.18806618387194", "display_name": "Gloucestershire, Slad Road, Painswick, Stroud, Gloucestershire, South West England, England, GL6 7QA, United Kingdom", "class": "boundary", "type": "ceremonial", "importance": 0.111}], "Wiltshire, England": [{"place_id": "208870812", "licence": "https://locationiq.com/attribution", "osm_type": "relation", "osm_id": "57533", "boundingbox": ["50.9449859", "51.7031417", "-2.3655986", "-1.4857262"], "lat": "51.25", "lon": "-1.916667", "display_name": "Wiltshire, South West England, England, United Kingdom", "class": "boundary", "type": "administrative", "importance": 0.84097558382515, "icon": "https://locationiq.org/static/images/mapicons/poi_boundary_administrative.p.20.png"}, {"place_id": "209210576", "licence": "https://locationiq.com/attribution", "osm_type": "relation", "osm_id": "2694420", "boundingbox": ["50.9449859", "51.7031417", "-2.3655986", "-1.4857262"], "lat": "51.324162", "lon": "-1.90324866990022", "display_name": "Wiltshire, Woodland Road, Patney, Wiltshire, South West England, England, SN10 3QZ, United Kingdom", "class": "boundary", "type": "ceremonial", "importance": 0.221}, {"place_id": "209945587", "licence": "https://locationiq.com/attribution", "osm_type": "relation", "osm_id": "8495487", "boundingbox": ["50.9172357", "51.7061702", "-2.3634632", "-1.4857262"], "lat": "51.3116763", "lon": "-1.93131716466775", "display_name": "Wiltshire, B3098, Urchfont, Wedhampton, Wiltshire, South West England, England, SN10 3PX, United Kingdom", "class": "boundary", "type": "traditional", "importance": 0.221}], "South Coast, UK": [{"place_id": "116711470", "licence": "https://locationiq.com/attribution", "osm_type": "way", "osm_id": "162253070", "boundingbox": ["57.8155948", "57.8186463", "-5.6702676", "-5.6650394"], "lat": "57.8155948", "lon": "-5.6696957", "display_name": "Coast, Inverasdale, Highland, Scotland, IV22 2LR, United Kingdom", "class": "highway", "type": "unclassified", "importance": 0.21}], "Bath and North East Somerset": [{"place_id": "208882796", "licence": "https://locationiq.com/attribution", "osm_type": "relation", "osm_id": "81941", "boundingbox": ["51.2731011", "51.4395352", "-2.707888", "-2.2785383"], "lat": "51.35632375", "lon": "-2.48666142450209", "display_name": "Bath and North East Somerset, South West England, England, United Kingdom", "class": "boundary", "type": "administrative", "importance": 0.93945442203905, "icon": "https://locationiq.org/static/images/mapicons/poi_boundary_administrative.p.20.png"}], "South coast, United Kingdom": [{"place_id": "116711470", "licence": "https://locationiq.com/attribution", "osm_type": "way", "osm_id": "162253070", "boundingbox": ["57.8155948", "57.8186463", "-5.6702676", "-5.6650394"], "lat": "57.8155948", "lon": "-5.6696957", "display_name": "Coast, Inverasdale, Highland, Scotland, IV22 2LR, United Kingdom", "class": "highway", "type": "unclassified", "importance": 0.4}], "Trowbridge, England": [{"place_id": "114536", "licence": "https://locationiq.com/attribution", "osm_type": "node", "osm_id": "21272012", "boundingbox": ["51.2791947", "51.3591947", "-2.2440788", "-2.1640788"], "lat": "51.3191947", "lon": "-2.2040788", "display_name": "Trowbridge, Wiltshire, South West England, England, BA14, United Kingdom", "class": "place", "type": "town", "importance": 0.66970544553013, "icon": "https://locationiq.org/static/images/mapicons/poi_place_town.p.20.png"}, {"place_id": "111046", "licence": "https://locationiq.com/attribution", "osm_type": "node", "osm_id": "17773687", "boundingbox": ["51.3150104", "51.3250104", "-2.2193184", "-2.2093184"], "lat": "51.3200104", "lon": "-2.2143184", "display_name": "Trowbridge, A363, Trowbridge, Wiltshire, South West England, England, BA14, United Kingdom", "class": "railway", "type": "station", "importance": 0.50613333173007, "icon": "https://locationiq.org/static/images/mapicons/transport_train_station2.p.20.png"}, {"place_id": "209299572", "licence": "https://locationiq.com/attribution", "osm_type": "relation", "osm_id": "3404353", "boundingbox": ["51.3016056", "51.337515", "-2.2355617", "-2.1734748"], "lat": "51.3195102", "lon": "-2.20178646939359", "display_name": "Trowbridge, Wiltshire, South West England, England, BA14, United Kingdom", "class": "boundary", "type": "administrative", "importance": 0.47, "icon": "https://locationiq.org/static/images/mapicons/poi_boundary_administrative.p.20.png"}, {"place_id": "190958239", "licence": "https://locationiq.com/attribution", "osm_type": "way", "osm_id": "538319867", "boundingbox": ["51.8349455", "51.8350285", "1.244321", "1.2445998"], "lat": "51.834987", "lon": "1.2444604", "display_name": "Trowbridge, 147, Connaught Avenue, Frinton and Walton, Tendring, Essex, East of England, England, CO13 9RA, United Kingdom", "class": "shop", "type": "estate_agent", "importance": 0.221, "icon": "https://locationiq.org/static/images/mapicons/shopping_estateagent2.p.20.png"}], "Southern England": [{"place_id": "6230157", "licence": "https://locationiq.com/attribution", "osm_type": "node", "osm_id": "668104313", "boundingbox": ["51.2146017", "51.2147017", "-3.7409219", "-3.7408219"], "lat": "51.2146517", "lon": "-3.7408719", "display_name": "Southern Ball, North Devon, Devon, South West England, England, EX35 6BL, United Kingdom", "class": "natural", "type": "peak", "importance": 0.51, "icon": "https://locationiq.org/static/images/mapicons/poi_peak.p.20.png"}, {"place_id": "72822953", "licence": "https://locationiq.com/attribution", "osm_type": "way", "osm_id": "4609447", "boundingbox": ["53.4255922", "53.4326526", "-2.2675341", "-2.2530753"], "lat": "53.42952655", "lon": "-2.25970971771584", "display_name": "Southern Cemetery, West Didsbury, Manchester, Greater Manchester, North West England, England, United Kingdom", "class": "landuse", "type": "cemetery", "importance": 0.50580200638804}, {"place_id": "179802552", "licence": "https://locationiq.com/attribution", "osm_type": "way", "osm_id": "463485959", "boundingbox": ["53.5606893", "53.5622607", "-3.0405354", "-3.0373277"], "lat": "53.5614994", "lon": "-3.03897210160814", "display_name": "Southern Heys Farm, West Lancashire, Lancashire, North West England, England, L37 0AA, United Kingdom", "class": "place", "type": "farm", "importance": 0.46}, {"place_id": "64586223", "licence": "https://locationiq.com/attribution", "osm_type": "node", "osm_id": "5484594570", "boundingbox": ["50.6520762", "50.6720762", "-1.1783273", "-1.1583273"], "lat": "50.6620762", "lon": "-1.1683273", "display_name": "Southern Water Treatment and Supply Works, Lake, Isle of Wight, South East, England, PO36 9JH, United Kingdom", "class": "place", "type": "locality", "importance": 0.46, "icon": "https://locationiq.org/static/images/mapicons/poi_place_village.p.20.png"}, {"place_id": "28297213", "licence": "https://locationiq.com/attribution", "osm_type": "node", "osm_id": "2701222892", "boundingbox": ["53.6045367", "53.6245367", "-0.3337206", "-0.3137206"], "lat": "53.6145367", "lon": "-0.3237206", "display_name": "Southern Farm, Ulceby, North Lincolnshire, Yorkshire and the Humber, England, DN39 6SU, United Kingdom", "class": "place", "type": "farm", "importance": 0.46}, {"place_id": "46632910", "licence": "https://locationiq.com/attribution", "osm_type": "node", "osm_id": "3494807004", "boundingbox": ["51.4244008", "51.4245008", "-1.7129563", "-1.7128563"], "lat": "51.4244508", "lon": "-1.7129063", "display_name": "Southern View, Mildenhall, Wiltshire, South West England, England, SN8 2BE, United Kingdom", "class": "place", "type": "isolated_dwelling", "importance": 0.46}, {"place_id": "102337557", "licence": "https://locationiq.com/attribution", "osm_type": "way", "osm_id": "105372100", "boundingbox": ["51.4680269", "51.4680464", "-0.4779581", "-0.4742634"], "lat": "51.4680366", "lon": "-0.4761119", "display_name": "Southern Airside Road, Harmondsworth, London Borough of Hillingdon, London, Greater London, England, TW6 2GB, United Kingdom", "class": "highway", "type": "unclassified", "importance": 0.4287004523946}, {"place_id": "102338331", "licence": "https://locationiq.com/attribution", "osm_type": "way", "osm_id": "105372130", "boundingbox": ["51.4679855", "51.4683534", "-0.4906058", "-0.4864521"], "lat": "51.4679855", "lon": "-0.4890349", "display_name": "Southern Airside Road, Harmondsworth, London Borough of Hillingdon, London, Greater London, England, TW6 2FF, United Kingdom", "class": "highway", "type": "unclassified", "importance": 0.4287004523946}, {"place_id": "114359067", "licence": "https://locationiq.com/attribution", "osm_type": "way", "osm_id": "152894859", "boundingbox": ["51.5216984", "51.522264", "-0.1055989", "-0.1049345"], "lat": "51.52197555", "lon": "-0.105262628566666", "display_name": "Southern Housing Group, 57-61, Clerkenwell Road, Saint Luke's, Clerkenwell, London Borough of Islington, London, Greater London, England, EC1R 0DX, United Kingdom", "class": "office", "type": "ngo", "importance": 0.41436424356534}, {"place_id": "73074109", "licence": "https://locationiq.com/attribution", "osm_type": "way", "osm_id": "5044265", "boundingbox": ["51.3878549", "51.3891087", "0.1879451", "0.191847"], "lat": "51.3884048", "lon": "0.190010185530503", "display_name": "Southern Cross Industrial Estate, Swanley, Sevenoaks, Kent, South East, England, United Kingdom", "class": "landuse", "type": "industrial", "importance": 0.41}], "Wiltshire England": [{"place_id": "208870812", "licence": "https://locationiq.com/attribution", "osm_type": "relation", "osm_id": "57533", "boundingbox": ["50.9449859", "51.7031417", "-2.3655986", "-1.4857262"], "lat": "51.25", "lon": "-1.916667", "display_name": "Wiltshire, South West England, England, United Kingdom", "class": "boundary", "type": "administrative", "importance": 0.84097558382515, "icon": "https://locationiq.org/static/images/mapicons/poi_boundary_administrative.p.20.png"}, {"place_id": "209210576", "licence": "https://locationiq.com/attribution", "osm_type": "relation", "osm_id": "2694420", "boundingbox": ["50.9449859", "51.7031417", "-2.3655986", "-1.4857262"], "lat": "51.324162", "lon": "-1.90324866990022", "display_name": "Wiltshire, Woodland Road, Patney, Wiltshire, South West England, England, SN10 3QZ, United Kingdom", "class": "boundary", "type": "ceremonial", "importance": 0.221}, {"place_id": "209945587", "licence": "https://locationiq.com/attribution", "osm_type": "relation", "osm_id": "8495487", "boundingbox": ["50.9172357", "51.7061702", "-2.3634632", "-1.4857262"], "lat": "51.3116763", "lon": "-1.93131716466775", "display_name": "Wiltshire, B3098, Urchfont, Wedhampton, Wiltshire, South West England, England, SN10 3PX, United Kingdom", "class": "boundary", "type": "traditional", "importance": 0.221}], "Corsham, Wiltshire, UK": [{"place_id": "810059", "licence": "https://locationiq.com/attribution", "osm_type": "node", "osm_id": "272642178", "boundingbox": ["51.3903211", "51.4703211", "-2.2269766", "-2.1469766"], "lat": "51.4303211", "lon": "-2.1869766", "display_name": "Corsham, Wiltshire, South West England, England, SN13, United Kingdom", "class": "place", "type": "town", "importance": 0.64984133762996, "icon": "https://locationiq.org/static/images/mapicons/poi_place_town.p.20.png"}, {"place_id": "209300822", "licence": "https://locationiq.com/attribution", "osm_type": "relation", "osm_id": "3411503", "boundingbox": ["51.4002885", "51.4535419", "-2.2253743", "-2.1376328"], "lat": "51.42685935", "lon": "-2.18462285429813", "display_name": "Corsham, Wiltshire, South West England, England, SN13, United Kingdom", "class": "boundary", "type": "administrative", "importance": 0.47, "icon": "https://locationiq.org/static/images/mapicons/poi_boundary_administrative.p.20.png"}, {"place_id": "60479420", "licence": "https://locationiq.com/attribution", "osm_type": "node", "osm_id": "4946700698", "boundingbox": ["51.4258339", "51.4259339", "-2.189268", "-2.189168"], "lat": "51.4258839", "lon": "-2.189218", "display_name": "Corsham, Pound Mead, Corsham, Wiltshire, South West England, England, SN13, United Kingdom", "class": "railway", "type": "abandoned_station", "importance": 0.221}], "Wiltshire UK": [{"place_id": "208870812", "licence": "https://locationiq.com/attribution", "osm_type": "relation", "osm_id": "57533", "boundingbox": ["50.9449859", "51.7031417", "-2.3655986", "-1.4857262"], "lat": "51.25", "lon": "-1.916667", "display_name": "Wiltshire, South West England, England, United Kingdom", "class": "boundary", "type": "administrative", "importance": 0.73097558382515, "icon": "https://locationiq.org/static/images/mapicons/poi_boundary_administrative.p.20.png"}, {"place_id": "209210576", "licence": "https://locationiq.com/attribution", "osm_type": "relation", "osm_id": "2694420", "boundingbox": ["50.9449859", "51.7031417", "-2.3655986", "-1.4857262"], "lat": "51.324162", "lon": "-1.90324866990022", "display_name": "Wiltshire, Woodland Road, Patney, Wiltshire, South West England, England, SN10 3QZ, United Kingdom", "class": "boundary", "type": "ceremonial", "importance": 0.111}, {"place_id": "209945587", "licence": "https://locationiq.com/attribution", "osm_type": "relation", "osm_id": "8495487", "boundingbox": ["50.9172357", "51.7061702", "-2.3634632", "-1.4857262"], "lat": "51.3116763", "lon": "-1.93131716466775", "display_name": "Wiltshire, B3098, Urchfont, Wedhampton, Wiltshire, South West England, England, SN10 3PX, United Kingdom", "class": "boundary", "type": "traditional", "importance": 0.111}], "UK South Coast": [{"place_id": "49012854", "licence": "https://locationiq.com/attribution", "osm_type": "node", "osm_id": "3774649448", "boundingbox": ["50.7962507", "50.7963507", "-1.1067273", "-1.1066273"], "lat": "50.7963007", "lon": "-1.1066773", "display_name": "Coast, Togo Avenue, Gunwharf Quays, Portsea, Portsmouth, South East, England, PO1 3TX, United Kingdom", "class": "shop", "type": "clothes", "importance": 0.211, "icon": "https://locationiq.org/static/images/mapicons/shopping_clothes.p.20.png"}, {"place_id": "21966156", "licence": "https://locationiq.com/attribution", "osm_type": "node", "osm_id": "2218253515", "boundingbox": ["51.4395452", "51.4396452", "0.2708676", "0.2709676"], "lat": "51.4395952", "lon": "0.2709176", "display_name": "Coast, Guildhall, Stone, Dartford, Kent, South East, England, DA9 9SN, United Kingdom", "class": "shop", "type": "clothes", "importance": 0.211, "icon": "https://locationiq.org/static/images/mapicons/shopping_clothes.p.20.png"}, {"place_id": "68280437", "licence": "https://locationiq.com/attribution", "osm_type": "node", "osm_id": "5761874631", "boundingbox": ["51.204367", "51.204467", "-3.4558176", "-3.4557176"], "lat": "51.204417", "lon": "-3.4557676", "display_name": "Coast, Warren Road, Minehead, West Somerset, Somerset, South West England, England, TA24 5SJ, United Kingdom", "class": "amenity", "type": "restaurant", "importance": 0.211, "icon": "https://locationiq.org/static/images/mapicons/food_restaurant.p.20.png"}, {"place_id": "65952358", "licence": "https://locationiq.com/attribution", "osm_type": "node", "osm_id": "5598645802", "boundingbox": ["50.7847351", "50.7848351", "-0.6640665", "-0.6639665"], "lat": "50.7847851", "lon": "-0.6640165", "display_name": "Coast, Gloucester Road, Bognor Regis, Arun, West Sussex, South East, England, PO21 1NU, United Kingdom", "class": "amenity", "type": "restaurant", "importance": 0.211, "icon": "https://locationiq.org/static/images/mapicons/food_restaurant.p.20.png"}, {"place_id": "56638407", "licence": "https://locationiq.com/attribution", "osm_type": "node", "osm_id": "4574887846", "boundingbox": ["50.8211222", "50.8212222", "-0.1393842", "-0.1392842"], "lat": "50.8211722", "lon": "-0.1393342", "display_name": "Coast, 28, East Street, The Lanes, Round Hill, Brighton, Brighton and Hove, South East, England, BN1 1HL, United Kingdom", "class": "amenity", "type": "restaurant", "importance": 0.211, "icon": "https://locationiq.org/static/images/mapicons/food_restaurant.p.20.png"}, {"place_id": "53604866", "licence": "https://locationiq.com/attribution", "osm_type": "node", "osm_id": "4315153680", "boundingbox": ["51.5248738", "51.5249738", "-2.5944633", "-2.5943633"], "lat": "51.5249238", "lon": "-2.5944133", "display_name": "Coast, Pegasus Road, Cribbs Causeway, Almondsbury, Over, South Gloucestershire, South West England, England, BS32, United Kingdom", "class": "shop", "type": "clothes", "importance": 0.211, "icon": "https://locationiq.org/static/images/mapicons/shopping_clothes.p.20.png"}, {"place_id": "116711470", "licence": "https://locationiq.com/attribution", "osm_type": "way", "osm_id": "162253070", "boundingbox": ["57.8155948", "57.8186463", "-5.6702676", "-5.6650394"], "lat": "57.8155948", "lon": "-5.6696957", "display_name": "Coast, Inverasdale, Highland, Scotland, IV22 2LR, United Kingdom", "class": "highway", "type": "unclassified", "importance": 0.21}, {"place_id": "61605400", "licence": "https://locationiq.com/attribution", "osm_type": "node", "osm_id": "5107616722", "boundingbox": ["50.7607865", "50.7608865", "-1.2976719", "-1.2975719"], "lat": "50.7608365", "lon": "-1.2976219", "display_name": "The Coast, Cross Street, Cowes, Isle of Wight, South East, England, PO31 7BE, United Kingdom", "class": "amenity", "type": "restaurant", "importance": 0.201, "icon": "https://locationiq.org/static/images/mapicons/food_restaurant.p.20.png"}, {"place_id": "21306799", "licence": "https://locationiq.com/attribution", "osm_type": "node", "osm_id": "2153021839", "boundingbox": ["55.9532703", "55.9533703", "-3.1996447", "-3.1995447"], "lat": "55.9533203", "lon": "-3.1995947", "display_name": "Coast, 61, George Street, Silvermills, New Town/Broughton, Edinburgh, City of Edinburgh, Scotland, EH2 2JG, United Kingdom", "class": "place", "type": "house", "importance": 0.111}, {"place_id": "25661435", "licence": "https://locationiq.com/attribution", "osm_type": "node", "osm_id": "2517583458", "boundingbox": ["52.4787667", "52.4788667", "-1.8994591", "-1.8993591"], "lat": "52.4788167", "lon": "-1.8994091", "display_name": "Coast, Lower Temple Street, Digbeth, Birmingham, West Midlands Combined Authority, West Midlands, England, B2 4JD, United Kingdom", "class": "shop", "type": "clothes", "importance": 0.111, "icon": "https://locationiq.org/static/images/mapicons/shopping_clothes.p.20.png"}], "Swindon, Wiltshire, England": [{"place_id": "110022", "licence": "https://locationiq.com/attribution", "osm_type": "node", "osm_id": "15703170", "boundingbox": ["51.5213683", "51.6013683", "-1.8256853", "-1.7456853"], "lat": "51.5613683", "lon": "-1.7856853", "display_name": "Swindon, South West England, England, SN1 1JZ, United Kingdom", "class": "place", "type": "town", "importance": 0.73921333427724, "icon": "https://locationiq.org/static/images/mapicons/poi_place_town.p.20.png"}], "South Gloucestershire": [{"place_id": "208876627", "licence": "https://locationiq.com/attribution", "osm_type": "relation", "osm_id": "82631", "boundingbox": ["51.4159055", "51.6823947", "-2.7106969", "-2.2521441"], "lat": "51.54919165", "lon": "-2.48095281734538", "display_name": "South Gloucestershire, South West England, England, United Kingdom", "class": "boundary", "type": "administrative", "importance": 0.64579082541219, "icon": "https://locationiq.org/static/images/mapicons/poi_boundary_administrative.p.20.png"}], "Wiltshire,  UK": [{"place_id": "208870812", "licence": "https://locationiq.com/attribution", "osm_type": "relation", "osm_id": "57533", "boundingbox": ["50.9449859", "51.7031417", "-2.3655986", "-1.4857262"], "lat": "51.25", "lon": "-1.916667", "display_name": "Wiltshire, South West England, England, United Kingdom", "class": "boundary", "type": "administrative", "importance": 0.73097558382515, "icon": "https://locationiq.org/static/images/mapicons/poi_boundary_administrative.p.20.png"}, {"place_id": "209210576", "licence": "https://locationiq.com/attribution", "osm_type": "relation", "osm_id": "2694420", "boundingbox": ["50.9449859", "51.7031417", "-2.3655986", "-1.4857262"], "lat": "51.324162", "lon": "-1.90324866990022", "display_name": "Wiltshire, Woodland Road, Patney, Wiltshire, South West England, England, SN10 3QZ, United Kingdom", "class": "boundary", "type": "ceremonial", "importance": 0.111}, {"place_id": "209945587", "licence": "https://locationiq.com/attribution", "osm_type": "relation", "osm_id": "8495487", "boundingbox": ["50.9172357", "51.7061702", "-2.3634632", "-1.4857262"], "lat": "51.3116763", "lon": "-1.93131716466775", "display_name": "Wiltshire, B3098, Urchfont, Wedhampton, Wiltshire, South West England, England, SN10 3PX, United Kingdom", "class": "boundary", "type": "traditional", "importance": 0.111}]}