{"bridgend south wales": [{"place_id": "208877051", "licence": "https://locationiq.com/attribution", "osm_type": "relation", "osm_id": "99774", "boundingbox": ["51.4680939", "51.6458666", "-3.7698565", "-3.4630995"], "lat": "51.55696625", "lon": "-3.56409092910681", "display_name": "Bridgend, Wales, United Kingdom", "class": "boundary", "type": "administrative", "importance": 0.66940769039226, "icon": "https://locationiq.org/static/images/mapicons/poi_boundary_administrative.p.20.png"}, {"place_id": "193187941", "licence": "https://locationiq.com/attribution", "osm_type": "way", "osm_id": "550905141", "boundingbox": ["52.0749764", "52.0810265", "-4.6646367", "-4.6572853"], "lat": "52.0779267", "lon": "-4.66052769401684", "display_name": "Bridgend, Cardigan, Ceredigion, Wales, United Kingdom", "class": "place", "type": "neighbourhood", "importance": 0.4}], "Cardiff, South Wales, UK": [{"place_id": "6756085", "licence": "https://locationiq.com/attribution", "osm_type": "node", "osm_id": "738885245", "boundingbox": ["51.3216546", "51.6416546", "-3.3391934", "-3.0191934"], "lat": "51.4816546", "lon": "-3.1791934", "display_name": "Cardiff, Wales, CF, United Kingdom", "class": "place", "type": "city", "importance": 0.87519006278988, "icon": "https://locationiq.org/static/images/mapicons/poi_place_city.p.20.png"}, {"place_id": "209063984", "licence": "https://locationiq.com/attribution", "osm_type": "relation", "osm_id": "1625787", "boundingbox": ["51.3745559", "51.560504", "-3.34374", "-3.0688774"], "lat": "51.50166615", "lon": "-3.1929973710543", "display_name": "Cardiff, Wales, CF, United Kingdom", "class": "boundary", "type": "administrative", "importance": 0.67, "icon": "https://locationiq.org/static/images/mapicons/poi_boundary_administrative.p.20.png"}], "Bridgend, South Wales, UK": [{"place_id": "208877051", "licence": "https://locationiq.com/attribution", "osm_type": "relation", "osm_id": "99774", "boundingbox": ["51.4680939", "51.6458666", "-3.7698565", "-3.4630995"], "lat": "51.55696625", "lon": "-3.56409092910681", "display_name": "Bridgend, Wales, United Kingdom", "class": "boundary", "type": "administrative", "importance": 0.68940769039226, "icon": "https://locationiq.org/static/images/mapicons/poi_boundary_administrative.p.20.png"}, {"place_id": "193187941", "licence": "https://locationiq.com/attribution", "osm_type": "way", "osm_id": "550905141", "boundingbox": ["52.0749764", "52.0810265", "-4.6646367", "-4.6572853"], "lat": "52.0779267", "lon": "-4.66052769401684", "display_name": "Bridgend, Cardigan, Ceredigion, Wales, United Kingdom", "class": "place", "type": "neighbourhood", "importance": 0.42}], "Ammanford": [{"place_id": "195601", "licence": "https://locationiq.com/attribution", "osm_type": "node", "osm_id": "32639726", "boundingbox": ["51.7526317", "51.8326317", "-4.0287731", "-3.9487731"], "lat": "51.7926317", "lon": "-3.9887731", "display_name": "Ammanford, Carmarthenshire, Wales, SA18 3DL, United Kingdom", "class": "place", "type": "town", "importance": 0.4832619872166, "icon": "https://locationiq.org/static/images/mapicons/poi_place_town.p.20.png"}, {"place_id": "229704", "licence": "https://locationiq.com/attribution", "osm_type": "node", "osm_id": "49361111", "boundingbox": ["51.7955985", "51.7956985", "-3.9968883", "-3.9967883"], "lat": "51.7956485", "lon": "-3.9968383", "display_name": "Ammanford, Station Road, Tir-y-dail, Ammanford, Carmarthenshire, Wales, SA18 3SY, United Kingdom", "class": "railway", "type": "halt", "importance": 0.31436424356534}, {"place_id": "87756630", "licence": "https://locationiq.com/attribution", "osm_type": "way", "osm_id": "33592963", "boundingbox": ["51.4814312", "51.481834", "-0.9845878", "-0.9843376"], "lat": "51.4816677", "lon": "-0.9845878", "display_name": "Ammanford, Caversham Heights, Reading, South East, England, RG4 7XN, United Kingdom", "class": "highway", "type": "residential", "importance": 0.21}], "Ludlow, England": [{"place_id": "209357932", "licence": "https://locationiq.com/attribution", "osm_type": "relation", "osm_id": "3795241", "boundingbox": ["52.3625356", "52.3811669", "-2.7402459", "-2.6941669"], "lat": "52.3718705", "lon": "-2.71511196230311", "display_name": "Ludlow, Shropshire, West Midlands, England, United Kingdom", "class": "boundary", "type": "administrative", "importance": 0.66777666811357, "icon": "https://locationiq.org/static/images/mapicons/poi_boundary_administrative.p.20.png"}, {"place_id": "35669117", "licence": "https://locationiq.com/attribution", "osm_type": "node", "osm_id": "2845743841", "boundingbox": ["52.3279896", "52.4079896", "-2.7593114", "-2.6793114"], "lat": "52.3679896", "lon": "-2.7193114", "display_name": "Ludlow, Shropshire, West Midlands, England, SY8 1AW, United Kingdom", "class": "place", "type": "town", "importance": 0.52, "icon": "https://locationiq.org/static/images/mapicons/poi_place_town.p.20.png"}, {"place_id": "685324", "licence": "https://locationiq.com/attribution", "osm_type": "node", "osm_id": "252860639", "boundingbox": ["52.366071", "52.376071", "-2.7209583", "-2.7109583"], "lat": "52.371071", "lon": "-2.7159583", "display_name": "Ludlow, Station Drive, Ludlow, Shropshire, West Midlands, England, SY8 1NF, United Kingdom", "class": "railway", "type": "station", "importance": 0.48522811055188, "icon": "https://locationiq.org/static/images/mapicons/transport_train_station2.p.20.png"}, {"place_id": "89778544", "licence": "https://locationiq.com/attribution", "osm_type": "way", "osm_id": "40025208", "boundingbox": ["53.5617836", "53.5619113", "-2.7702343", "-2.7695089"], "lat": "53.5618753", "lon": "-2.7698738", "display_name": "Ludlow, West Lancashire, Lancashire, North West England, England, WN8 6TR, United Kingdom", "class": "highway", "type": "residential", "importance": 0.32}, {"place_id": "92886485", "licence": "https://locationiq.com/attribution", "osm_type": "way", "osm_id": "53021869", "boundingbox": ["51.3924622", "51.3924663", "-0.7558687", "-0.7554665"], "lat": "51.3924663", "lon": "-0.7558687", "display_name": "Ludlow, Great Hollands, Bracknell, Easthampstead, Bracknell Forest, South East, England, RG12 7BZ, United Kingdom", "class": "highway", "type": "residential", "importance": 0.32}, {"place_id": "45645836", "licence": "https://locationiq.com/attribution", "osm_type": "node", "osm_id": "3390024506", "boundingbox": ["51.5611483", "51.5612483", "-0.3406183", "-0.3405183"], "lat": "51.5611983", "lon": "-0.3405683", "display_name": "Ludlow, Orley Farm Road, South Hill Estate, Sudbury Hill, London Borough of Harrow, London, Greater London, England, HA1 3PG, United Kingdom", "class": "place", "type": "house", "importance": 0.221}, {"place_id": "134102538", "licence": "https://locationiq.com/attribution", "osm_type": "way", "osm_id": "230730982", "boundingbox": ["52.3772761", "52.3775878", "-2.7258553", "-2.7254259"], "lat": "52.37739165", "lon": "-2.72557646329042", "display_name": "Majestic Wine Warehouse, Bromfield Road, Ludlow, Shropshire, West Midlands, England, SY8 1DW, United Kingdom", "class": "shop", "type": "alcohol", "importance": 0.221, "icon": "https://locationiq.org/static/images/mapicons/shopping_alcohol.p.20.png"}, {"place_id": "48837445", "licence": "https://locationiq.com/attribution", "osm_type": "node", "osm_id": "3755840208", "boundingbox": ["53.6507115", "53.6508115", "-3.0003087", "-3.0002087"], "lat": "53.6507615", "lon": "-3.0002587", "display_name": "Ludlow, 172, Lord Street, Meols Cop, Sefton, North West England, England, PR9 0QA, United Kingdom", "class": "office", "type": "financial", "importance": 0.221}], "Bangor, Gwynedd, North Wales": [{"place_id": "115605", "licence": "https://locationiq.com/attribution", "osm_type": "node", "osm_id": "21413563", "boundingbox": ["53.0677187", "53.3877187", "-4.2868822", "-3.9668822"], "lat": "53.2277187", "lon": "-4.1268822", "display_name": "Bangor, Gwynedd, Wales, LL57 1DR, United Kingdom", "class": "place", "type": "city", "importance": 0.78881328062144, "icon": "https://locationiq.org/static/images/mapicons/poi_place_city.p.20.png"}, {"place_id": "54984378", "licence": "https://locationiq.com/attribution", "osm_type": "node", "osm_id": "4461326005", "boundingbox": ["53.2178045", "53.2278045", "-4.1407851", "-4.1307851"], "lat": "53.2228045", "lon": "-4.1357851", "display_name": "Bangor, Holyhead Road, Upper Bangor, Bangor, Gwynedd, Wales, LL57 1LZ, United Kingdom", "class": "railway", "type": "station", "importance": 0.57761685113657, "icon": "https://locationiq.org/static/images/mapicons/transport_train_station2.p.20.png"}], "Oswestry, Shropshire.": [{"place_id": "158210", "licence": "https://locationiq.com/attribution", "osm_type": "node", "osm_id": "29760180", "boundingbox": ["52.8203096", "52.9003096", "-3.0948201", "-3.0148201"], "lat": "52.8603096", "lon": "-3.0548201", "display_name": "Oswestry, Shropshire, West Midlands, England, SY11 1PX, United Kingdom", "class": "place", "type": "town", "importance": 0.68651065523957, "icon": "https://locationiq.org/static/images/mapicons/poi_place_town.p.20.png"}, {"place_id": "209736572", "licence": "https://locationiq.com/attribution", "osm_type": "relation", "osm_id": "7013945", "boundingbox": ["52.8424605", "52.8730659", "-3.0814059", "-3.0279812"], "lat": "52.85736745", "lon": "-3.05359339219527", "display_name": "Oswestry, Shropshire, West Midlands, England, United Kingdom", "class": "boundary", "type": "administrative", "importance": 0.47, "icon": "https://locationiq.org/static/images/mapicons/poi_boundary_administrative.p.20.png"}], "Somewhere in Wales": [{"place_id": "333716418472", "licence": "https://locationiq.com/attribution", "lat": "33.993417", "lon": "-81.015268", "display_name": "Wales Garden, Columbia, Richland County, South Carolina, United States", "boundingbox": ["33.9934173015", "33.9934173015", "-81.0152675247", "-81.0152675247"], "importance": 0.125}, {"place_id": "330696850129", "licence": "https://locationiq.com/attribution", "lat": "44.15757", "lon": "-70.04061", "display_name": "East Wales, Wales, Androscoggin County, Maine, United States", "boundingbox": ["44.15757", "44.15757", "-70.04061", "-70.04061"], "importance": 0.125}, {"place_id": "332708247375", "licence": "https://locationiq.com/attribution", "lat": "44.14776", "lon": "-70.070857", "display_name": "Wales Center, Wales, Androscoggin County, Maine, United States", "boundingbox": ["44.14776", "44.14776", "-70.070857", "-70.070857"], "importance": 0.125}, {"place_id": "333603402291", "licence": "https://locationiq.com/attribution", "lat": "27.8903", "lon": "-81.64647", "display_name": "West Lake Wales, Alturas, Polk County, Florida, United States", "boundingbox": ["27.8903", "27.8903", "-81.64647", "-81.64647"], "importance": 0.125}, {"place_id": "332206019901", "licence": "https://locationiq.com/attribution", "lat": "27.850631", "lon": "-81.602445", "display_name": "South Lake Wales, Polk County, Florida, United States", "boundingbox": ["27.850631", "27.850631", "-81.602445", "-81.602445"], "importance": 0.125}, {"place_id": "332124433152", "licence": "https://locationiq.com/attribution", "lat": "43.008693", "lon": "-88.373477", "display_name": "Wales, Waukesha County, Wisconsin, United States", "boundingbox": ["42.984631", "43.017971", "-88.399653", "-88.340379"], "importance": 0.125}, {"place_id": "331535329644", "licence": "https://locationiq.com/attribution", "lat": "42.061744", "lon": "-72.233307", "display_name": "Wales, Hampden County, Massachusetts, United States", "boundingbox": ["42.0310109843", "42.092522", "-72.270674624", "-72.192346"], "importance": 0.125}, {"place_id": "333403196650", "licence": "https://locationiq.com/attribution", "lat": "48.895163", "lon": "-98.600867", "display_name": "Wales, Cavalier County, North Dakota, United States", "boundingbox": ["48.891609", "48.898812", "-98.606197", "-98.595433"], "importance": 0.125}, {"place_id": "332124433152", "licence": "https://locationiq.com/attribution", "lat": "43.008676", "lon": "-88.373518", "display_name": "Wales, Waukesha County, Wisconsin, United States", "boundingbox": ["42.984631", "43.017971", "-88.399653", "-88.340379"], "importance": 0.125}, {"place_id": "333403196650", "licence": "https://locationiq.com/attribution", "lat": "48.895158", "lon": "-98.600831", "display_name": "Wales, Cavalier County, North Dakota, United States", "boundingbox": ["48.891609", "48.898812", "-98.606197", "-98.595433"], "importance": 0.125}], "Llandovery, Wales": [{"place_id": "150349", "licence": "https://locationiq.com/attribution", "osm_type": "node", "osm_id": "29233364", "boundingbox": ["51.9554586", "52.0354586", "-3.8377071", "-3.7577071"], "lat": "51.9954586", "lon": "-3.7977071", "display_name": "Llandovery, Carmarthenshire, Wales, SA20 0JP, United Kingdom", "class": "place", "type": "town", "importance": 0.60506868719577, "icon": "https://locationiq.org/static/images/mapicons/poi_place_town.p.20.png"}, {"place_id": "10939479", "licence": "https://locationiq.com/attribution", "osm_type": "node", "osm_id": "1039371521", "boundingbox": ["51.9903339", "52.0003339", "-3.8079698", "-3.7979698"], "lat": "51.9953339", "lon": "-3.8029698", "display_name": "Llandovery, Tywi Avenue, Llandovery, Carmarthenshire, Wales, SA20 0EG, United Kingdom", "class": "railway", "type": "station", "importance": 0.48899312843518, "icon": "https://locationiq.org/static/images/mapicons/transport_train_station2.p.20.png"}, {"place_id": "92862252", "licence": "https://locationiq.com/attribution", "osm_type": "way", "osm_id": "52848560", "boundingbox": ["51.9896912", "52.0020813", "-3.8050085", "-3.7908282"], "lat": "51.9958623", "lon": "-3.79810872879239", "display_name": "Llandovery, Carmarthenshire, Wales, United Kingdom", "class": "landuse", "type": "residential", "importance": 0.42}, {"place_id": "14076169", "licence": "https://locationiq.com/attribution", "osm_type": "node", "osm_id": "1300630753", "boundingbox": ["51.9952858", "51.9953858", "-3.803049", "-3.802949"], "lat": "51.9953358", "lon": "-3.802999", "display_name": "Llandovery, Tywi Avenue, Llandovery, Carmarthenshire, Wales, SA20 0EG, United Kingdom", "class": "railway", "type": "stop", "importance": 0.221}], "Ceredigion, Wales": [{"place_id": "208877674", "licence": "https://locationiq.com/attribution", "osm_type": "relation", "osm_id": "77904", "boundingbox": ["52.0267761", "52.5624254", "-4.6972224", "-3.6582816"], "lat": "52.2945938", "lon": "-3.95247250500557", "display_name": "Ceredigion, Wales, United Kingdom", "class": "boundary", "type": "administrative", "importance": 0.72909545727253, "icon": "https://locationiq.org/static/images/mapicons/poi_boundary_administrative.p.20.png"}], "Middle of England": [{"place_id": "15840662", "licence": "https://locationiq.com/attribution", "osm_type": "node", "osm_id": "1496488061", "boundingbox": ["55.4042529", "55.4242529", "-2.211099", "-2.191099"], "lat": "55.4142529", "lon": "-2.201099", "display_name": "The Middle, Northumberland, North East England, England, NE65 7BU, United Kingdom", "class": "place", "type": "locality", "importance": 0.46, "icon": "https://locationiq.org/static/images/mapicons/poi_place_village.p.20.png"}, {"place_id": "119997487", "licence": "https://locationiq.com/attribution", "osm_type": "way", "osm_id": "173730878", "boundingbox": ["51.4086285", "51.4119705", "-0.9376308", "-0.9310114"], "lat": "51.4100839", "lon": "-0.935151847925782", "display_name": "Middle, Shinfield, Wokingham, South East, England, United Kingdom", "class": "landuse", "type": "farmland", "importance": 0.42}, {"place_id": "121822584", "licence": "https://locationiq.com/attribution", "osm_type": "way", "osm_id": "181152395", "boundingbox": ["52.5822079", "52.5860105", "-0.7325126", "-0.7226501"], "lat": "52.58410715", "lon": "-0.728367730570635", "display_name": "The Middle, Uppingham, Rutland, East Midlands, England, United Kingdom", "class": "landuse", "type": "grass", "importance": 0.41}, {"place_id": "99883858", "licence": "https://locationiq.com/attribution", "osm_type": "way", "osm_id": "94902630", "boundingbox": ["52.8052464", "52.807334", "-1.636503", "-1.6326293"], "lat": "52.8062846", "lon": "-1.6342560567798", "display_name": "The Middle, Brook Street, Coors Brewery, Burton, East Staffordshire, Staffordshire, West Midlands, England, DE14 1BD, United Kingdom", "class": "building", "type": "yes", "importance": 0.211}, {"place_id": "13910525", "licence": "https://locationiq.com/attribution", "osm_type": "node", "osm_id": "1257663738", "boundingbox": ["51.0538963", "51.0539963", "-0.6250587", "-0.6249587"], "lat": "51.0539463", "lon": "-0.6250087", "display_name": "Midhurst VOR, Pipers Lane, Northchapel, Chichester, West Sussex, South East, England, GU28 9JB, United Kingdom", "class": "aeroway", "type": "navigationaid", "importance": 0.111}], "Wales/Cymru": [{"place_id": "208870484", "licence": "https://locationiq.com/attribution", "osm_type": "relation", "osm_id": "58437", "boundingbox": ["51.2290265", "53.635", "-5.8077297", "-2.6498626"], "lat": "52.2928116", "lon": "-3.73893", "display_name": "Wales, United Kingdom", "class": "boundary", "type": "administrative", "importance": 0.86480514477124, "icon": "https://locationiq.org/static/images/mapicons/poi_boundary_administrative.p.20.png"}, {"place_id": "100701348", "licence": "https://locationiq.com/attribution", "osm_type": "way", "osm_id": "98209385", "boundingbox": ["51.4736908", "51.4739593", "-3.1533565", "-3.1527644"], "lat": "51.47382455", "lon": "-3.1530604342578", "display_name": "Football Association of Wales, Vanguard Way, Splott, Cardiff, Wales, CF, United Kingdom", "class": "office", "type": "ngo", "importance": 0.57052356987067}, {"place_id": "208978908", "licence": "https://locationiq.com/attribution", "osm_type": "relation", "osm_id": "553399", "boundingbox": ["52.4139661", "52.414971", "-4.0688958", "-4.066707"], "lat": "52.41446365", "lon": "-4.06850729032968", "display_name": "National Library of Wales, Cathedral View, Llanbadarn Fawr, Penparcau, Ceredigion, Wales, SY23 1HH, United Kingdom", "class": "amenity", "type": "library", "importance": 0.53464418581502, "icon": "https://locationiq.org/static/images/mapicons/amenity_library.p.20.png"}, {"place_id": "84918657", "licence": "https://locationiq.com/attribution", "osm_type": "way", "osm_id": "26584146", "boundingbox": ["51.4639968", "51.4654628", "-3.1638328", "-3.1617384"], "lat": "51.46474055", "lon": "-3.16320901999619", "display_name": "Wales Millennium Centre, Bute Place, Butetown, Cardiff, Wales, CF10 5AL, United Kingdom", "class": "amenity", "type": "theatre", "importance": 0.50454431737364, "icon": "https://locationiq.org/static/images/mapicons/tourist_theatre.p.20.png"}, {"place_id": "93295785", "licence": "https://locationiq.com/attribution", "osm_type": "way", "osm_id": "55127928", "boundingbox": ["52.1108198", "52.1154154", "-4.0781581", "-4.0723928"], "lat": "52.11313185", "lon": "-4.0752016745469", "display_name": "University of Wales, Trinity Saint David, Bridge Street, Barley Mow, Lampeter, Ceredigion, Wales, SA48 7HG, United Kingdom", "class": "amenity", "type": "university", "importance": 0.50087324663191, "icon": "https://locationiq.org/static/images/mapicons/education_university.p.20.png"}, {"place_id": "83270592", "licence": "https://locationiq.com/attribution", "osm_type": "way", "osm_id": "22821244", "boundingbox": ["51.485294", "51.4865524", "-3.1785238", "-3.1765728"], "lat": "51.4859198", "lon": "-3.17754420526787", "display_name": "National Museum Cardiff, Museum Avenue, Castle, Cardiff, Wales, CF, United Kingdom", "class": "tourism", "type": "museum", "importance": 0.4946342182247, "icon": "https://locationiq.org/static/images/mapicons/tourist_museum.p.20.png"}, {"place_id": "143344034", "licence": "https://locationiq.com/attribution", "osm_type": "way", "osm_id": "271049975", "boundingbox": ["53.0539907", "53.0546853", "-3.0028191", "-3.0011868"], "lat": "53.05433715", "lon": "-3.00247244640134", "display_name": "Techniquest Glynd\u0175r, Mold Road, Rhosrobin, Wrexham, Wales, LL11 2AW, United Kingdom", "class": "tourism", "type": "attraction", "importance": 0.47385461349205, "icon": "https://locationiq.org/static/images/mapicons/poi_point_of_interest.p.20.png"}, {"place_id": "209975886", "licence": "https://locationiq.com/attribution", "osm_type": "relation", "osm_id": "8859921", "boundingbox": ["51.618041", "51.6199686", "-3.9310419", "-3.9168961"], "lat": "51.61893335", "lon": "-3.92419769749337", "display_name": "Prince of Wales Dock, Swansea, Wales, SA1 8PL, United Kingdom", "class": "waterway", "type": "dock", "importance": 0.46}, {"place_id": "101814686", "licence": "https://locationiq.com/attribution", "osm_type": "way", "osm_id": "103216293", "boundingbox": ["51.4771235", "51.4775632", "-3.1814109", "-3.1807727"], "lat": "51.47734335", "lon": "-3.1810918", "display_name": "Media Wales, 6, Park Street, Castle, Cardiff, Wales, CF, United Kingdom", "class": "building", "type": "yes", "importance": 0.4566874034691}, {"place_id": "84048236", "licence": "https://locationiq.com/attribution", "osm_type": "way", "osm_id": "24533490", "boundingbox": ["51.5059473", "51.5083848", "-3.1919458", "-3.1882102"], "lat": "51.5070977", "lon": "-3.18988361501551", "display_name": "University Hospital of Wales, The Gateway, Heath, Cardiff, Wales, CF, United Kingdom", "class": "building", "type": "hospital", "importance": 0.4163828842121}], "Wrexham, North Wales, UK": [{"place_id": "208895080", "licence": "https://locationiq.com/attribution", "osm_type": "relation", "osm_id": "137981", "boundingbox": ["52.8665854", "53.1343093", "-3.3755256", "-2.724145"], "lat": "53.00046485", "lon": "-2.99113006080847", "display_name": "Wrexham, Wales, United Kingdom", "class": "boundary", "type": "administrative", "importance": 0.6421985520498, "icon": "https://locationiq.org/static/images/mapicons/poi_boundary_administrative.p.20.png"}], "Crawley, UK": [{"place_id": "208891710", "licence": "https://locationiq.com/attribution", "osm_type": "relation", "osm_id": "114858", "boundingbox": ["51.0848063", "51.167301", "-0.2556345", "-0.1329796"], "lat": "51.1103444", "lon": "-0.1801094", "display_name": "Crawley, West Sussex, South East, England, United Kingdom", "class": "boundary", "type": "administrative", "importance": 0.59665285887146, "icon": "https://locationiq.org/static/images/mapicons/poi_boundary_administrative.p.20.png"}, {"place_id": "109449", "licence": "https://locationiq.com/attribution", "osm_type": "node", "osm_id": "14329666", "boundingbox": ["51.7862564", "51.8262564", "-1.5266056", "-1.4866056"], "lat": "51.8062564", "lon": "-1.5066056", "display_name": "Crawley, Oxfordshire, South East, England, OX29 9TW, United Kingdom", "class": "place", "type": "village", "importance": 0.44025481034543, "icon": "https://locationiq.org/static/images/mapicons/poi_place_village.p.20.png"}, {"place_id": "680834", "licence": "https://locationiq.com/attribution", "osm_type": "node", "osm_id": "251829586", "boundingbox": ["51.090009", "51.130009", "-1.4071527", "-1.3671527"], "lat": "51.110009", "lon": "-1.3871527", "display_name": "Crawley, Hampshire, South East, England, SO21 2PR, United Kingdom", "class": "place", "type": "village", "importance": 0.4236646714219, "icon": "https://locationiq.org/static/images/mapicons/poi_place_village.p.20.png"}, {"place_id": "209286479", "licence": "https://locationiq.com/attribution", "osm_type": "relation", "osm_id": "3333321", "boundingbox": ["51.0851525", "51.1291477", "-1.436309", "-1.352859"], "lat": "51.1073148", "lon": "-1.39820916406701", "display_name": "Crawley, Winchester, Hampshire, South East, England, United Kingdom", "class": "boundary", "type": "administrative", "importance": 0.4236646714219, "icon": "https://locationiq.org/static/images/mapicons/poi_boundary_administrative.p.20.png"}, {"place_id": "16381138", "licence": "https://locationiq.com/attribution", "osm_type": "node", "osm_id": "1585249544", "boundingbox": ["50.8462456", "50.8862456", "-3.0732122", "-3.0332122"], "lat": "50.8662456", "lon": "-3.0532122", "display_name": "Crawley, Devon, South West England, England, EX14 9AX, United Kingdom", "class": "place", "type": "hamlet", "importance": 0.385, "icon": "https://locationiq.org/static/images/mapicons/poi_place_village.p.20.png"}, {"place_id": "248396138", "licence": "https://locationiq.com/attribution", "osm_type": "way", "osm_id": "669904586", "boundingbox": ["55.4418288", "55.4427939", "-1.8932734", "-1.8912068"], "lat": "55.4426637", "lon": "-1.892497", "display_name": "Crawley, Northumberland, North East England, England, NE66 4JA, United Kingdom", "class": "place", "type": "hamlet", "importance": 0.385, "icon": "https://locationiq.org/static/images/mapicons/poi_place_village.p.20.png"}, {"place_id": "209413652", "licence": "https://locationiq.com/attribution", "osm_type": "relation", "osm_id": "4221132", "boundingbox": ["51.7963787", "51.8335547", "-1.5258576", "-1.4925415"], "lat": "51.8149337", "lon": "-1.50554113174698", "display_name": "Crawley, West Oxfordshire, Oxfordshire, South East, England, United Kingdom", "class": "boundary", "type": "administrative", "importance": 0.36, "icon": "https://locationiq.org/static/images/mapicons/poi_boundary_administrative.p.20.png"}, {"place_id": "69253023", "licence": "https://locationiq.com/attribution", "osm_type": "node", "osm_id": "5870767825", "boundingbox": ["51.1070836", "51.1170836", "-0.1920935", "-0.1820935"], "lat": "51.1120836", "lon": "-0.1870935", "display_name": "Crawley, Station Way, Crawley, West Sussex, South East, England, RH10 1JA, United Kingdom", "class": "railway", "type": "station", "importance": 0.111, "icon": "https://locationiq.org/static/images/mapicons/transport_train_station2.p.20.png"}], "Crawley, England": [{"place_id": "208891710", "licence": "https://locationiq.com/attribution", "osm_type": "relation", "osm_id": "114858", "boundingbox": ["51.0848063", "51.167301", "-0.2556345", "-0.1329796"], "lat": "51.1103444", "lon": "-0.1801094", "display_name": "Crawley, West Sussex, South East, England, United Kingdom", "class": "boundary", "type": "administrative", "importance": 0.70665285887146, "icon": "https://locationiq.org/static/images/mapicons/poi_boundary_administrative.p.20.png"}, {"place_id": "109449", "licence": "https://locationiq.com/attribution", "osm_type": "node", "osm_id": "14329666", "boundingbox": ["51.7862564", "51.8262564", "-1.5266056", "-1.4866056"], "lat": "51.8062564", "lon": "-1.5066056", "display_name": "Crawley, Oxfordshire, South East, England, OX29 9TW, United Kingdom", "class": "place", "type": "village", "importance": 0.55025481034543, "icon": "https://locationiq.org/static/images/mapicons/poi_place_village.p.20.png"}, {"place_id": "209286479", "licence": "https://locationiq.com/attribution", "osm_type": "relation", "osm_id": "3333321", "boundingbox": ["51.0851525", "51.1291477", "-1.436309", "-1.352859"], "lat": "51.1073148", "lon": "-1.39820916406701", "display_name": "Crawley, Winchester, Hampshire, South East, England, United Kingdom", "class": "boundary", "type": "administrative", "importance": 0.5336646714219, "icon": "https://locationiq.org/static/images/mapicons/poi_boundary_administrative.p.20.png"}, {"place_id": "680834", "licence": "https://locationiq.com/attribution", "osm_type": "node", "osm_id": "251829586", "boundingbox": ["51.090009", "51.130009", "-1.4071527", "-1.3671527"], "lat": "51.110009", "lon": "-1.3871527", "display_name": "Crawley, Hampshire, South East, England, SO21 2PR, United Kingdom", "class": "place", "type": "village", "importance": 0.5336646714219, "icon": "https://locationiq.org/static/images/mapicons/poi_place_village.p.20.png"}, {"place_id": "248396138", "licence": "https://locationiq.com/attribution", "osm_type": "way", "osm_id": "669904586", "boundingbox": ["55.4418288", "55.4427939", "-1.8932734", "-1.8912068"], "lat": "55.4426637", "lon": "-1.892497", "display_name": "Crawley, Northumberland, North East England, England, NE66 4JA, United Kingdom", "class": "place", "type": "hamlet", "importance": 0.495, "icon": "https://locationiq.org/static/images/mapicons/poi_place_village.p.20.png"}, {"place_id": "16381138", "licence": "https://locationiq.com/attribution", "osm_type": "node", "osm_id": "1585249544", "boundingbox": ["50.8462456", "50.8862456", "-3.0732122", "-3.0332122"], "lat": "50.8662456", "lon": "-3.0532122", "display_name": "Crawley, Devon, South West England, England, EX14 9AX, United Kingdom", "class": "place", "type": "hamlet", "importance": 0.495, "icon": "https://locationiq.org/static/images/mapicons/poi_place_village.p.20.png"}, {"place_id": "209413652", "licence": "https://locationiq.com/attribution", "osm_type": "relation", "osm_id": "4221132", "boundingbox": ["51.7963787", "51.8335547", "-1.5258576", "-1.4925415"], "lat": "51.8149337", "lon": "-1.50554113174698", "display_name": "Crawley, West Oxfordshire, Oxfordshire, South East, England, United Kingdom", "class": "boundary", "type": "administrative", "importance": 0.47, "icon": "https://locationiq.org/static/images/mapicons/poi_boundary_administrative.p.20.png"}, {"place_id": "69253023", "licence": "https://locationiq.com/attribution", "osm_type": "node", "osm_id": "5870767825", "boundingbox": ["51.1070836", "51.1170836", "-0.1920935", "-0.1820935"], "lat": "51.1120836", "lon": "-0.1870935", "display_name": "Crawley, Station Way, Crawley, West Sussex, South East, England, RH10 1JA, United Kingdom", "class": "railway", "type": "station", "importance": 0.221, "icon": "https://locationiq.org/static/images/mapicons/transport_train_station2.p.20.png"}], "Crawley, West Sussex": [{"place_id": "208891710", "licence": "https://locationiq.com/attribution", "osm_type": "relation", "osm_id": "114858", "boundingbox": ["51.0848063", "51.167301", "-0.2556345", "-0.1329796"], "lat": "51.1103444", "lon": "-0.1801094", "display_name": "Crawley, West Sussex, South East, England, United Kingdom", "class": "boundary", "type": "administrative", "importance": 0.79665285887146, "icon": "https://locationiq.org/static/images/mapicons/poi_boundary_administrative.p.20.png"}, {"place_id": "69253023", "licence": "https://locationiq.com/attribution", "osm_type": "node", "osm_id": "5870767825", "boundingbox": ["51.1070836", "51.1170836", "-0.1920935", "-0.1820935"], "lat": "51.1120836", "lon": "-0.1870935", "display_name": "Crawley, Station Way, Crawley, West Sussex, South East, England, RH10 1JA, United Kingdom", "class": "railway", "type": "station", "importance": 0.311, "icon": "https://locationiq.org/static/images/mapicons/transport_train_station2.p.20.png"}], "Horley, Surrey": [{"place_id": "239314", "licence": "https://locationiq.com/attribution", "osm_type": "node", "osm_id": "58808142", "boundingbox": ["51.1316845", "51.2116845", "-0.2040834", "-0.1240834"], "lat": "51.1716845", "lon": "-0.1640834", "display_name": "Horley, Surrey, South East, England, RH6 7PP, United Kingdom", "class": "place", "type": "town", "importance": 0.59116415330558, "icon": "https://locationiq.org/static/images/mapicons/poi_place_town.p.20.png"}, {"place_id": "209238870", "licence": "https://locationiq.com/attribution", "osm_type": "relation", "osm_id": "2877689", "boundingbox": ["51.159585", "51.1923012", "-0.1922998", "-0.1277468"], "lat": "51.17594", "lon": "-0.159605929927319", "display_name": "Horley, Reigate and Banstead, Surrey, South East, England, United Kingdom", "class": "boundary", "type": "administrative", "importance": 0.47, "icon": "https://locationiq.org/static/images/mapicons/poi_boundary_administrative.p.20.png"}, {"place_id": "20121773", "licence": "https://locationiq.com/attribution", "osm_type": "node", "osm_id": "2053160023", "boundingbox": ["51.1637913", "51.1737913", "-0.1659516", "-0.1559516"], "lat": "51.1687913", "lon": "-0.1609516", "display_name": "Horley, Victoria Road, Horley, Reigate and Banstead, Surrey, South East, England, RH6 7NL, United Kingdom", "class": "railway", "type": "station", "importance": 0.221, "icon": "https://locationiq.org/static/images/mapicons/transport_train_station2.p.20.png"}], "Crawley": [{"place_id": "208891710", "licence": "https://locationiq.com/attribution", "osm_type": "relation", "osm_id": "114858", "boundingbox": ["51.0848063", "51.167301", "-0.2556345", "-0.1329796"], "lat": "51.1103444", "lon": "-0.1801094", "display_name": "Crawley, West Sussex, South East, England, United Kingdom", "class": "boundary", "type": "administrative", "importance": 0.59665285887146, "icon": "https://locationiq.org/static/images/mapicons/poi_boundary_administrative.p.20.png"}, {"place_id": "109449", "licence": "https://locationiq.com/attribution", "osm_type": "node", "osm_id": "14329666", "boundingbox": ["51.7862564", "51.8262564", "-1.5266056", "-1.4866056"], "lat": "51.8062564", "lon": "-1.5066056", "display_name": "Crawley, Oxfordshire, South East, England, OX29 9TW, United Kingdom", "class": "place", "type": "village", "importance": 0.44025481034543, "icon": "https://locationiq.org/static/images/mapicons/poi_place_village.p.20.png"}, {"place_id": "458682", "licence": "https://locationiq.com/attribution", "osm_type": "node", "osm_id": "154329151", "boundingbox": ["37.9148405", "37.9548405", "-80.6720294", "-80.6320294"], "lat": "37.9348405", "lon": "-80.6520294", "display_name": "Crawley, Greenbrier County, West Virginia, 24931, USA", "class": "place", "type": "hamlet", "importance": 0.43410162999415, "icon": "https://locationiq.org/static/images/mapicons/poi_place_village.p.20.png"}, {"place_id": "209286479", "licence": "https://locationiq.com/attribution", "osm_type": "relation", "osm_id": "3333321", "boundingbox": ["51.0851525", "51.1291477", "-1.436309", "-1.352859"], "lat": "51.1073148", "lon": "-1.39820916406701", "display_name": "Crawley, Winchester, Hampshire, South East, England, United Kingdom", "class": "boundary", "type": "administrative", "importance": 0.4236646714219, "icon": "https://locationiq.org/static/images/mapicons/poi_boundary_administrative.p.20.png"}, {"place_id": "680834", "licence": "https://locationiq.com/attribution", "osm_type": "node", "osm_id": "251829586", "boundingbox": ["51.090009", "51.130009", "-1.4071527", "-1.3671527"], "lat": "51.110009", "lon": "-1.3871527", "display_name": "Crawley, Hampshire, South East, England, SO21 2PR, United Kingdom", "class": "place", "type": "village", "importance": 0.4236646714219, "icon": "https://locationiq.org/static/images/mapicons/poi_place_village.p.20.png"}, {"place_id": "16381138", "licence": "https://locationiq.com/attribution", "osm_type": "node", "osm_id": "1585249544", "boundingbox": ["50.8462456", "50.8862456", "-3.0732122", "-3.0332122"], "lat": "50.8662456", "lon": "-3.0532122", "display_name": "Crawley, Devon, South West England, England, EX14 9AX, United Kingdom", "class": "place", "type": "hamlet", "importance": 0.385, "icon": "https://locationiq.org/static/images/mapicons/poi_place_village.p.20.png"}, {"place_id": "248396143", "licence": "https://locationiq.com/attribution", "osm_type": "way", "osm_id": "669904586", "boundingbox": ["55.4418288", "55.4427939", "-1.8932734", "-1.8912068"], "lat": "55.4426637", "lon": "-1.892497", "display_name": "Crawley, Northumberland, North East England, England, NE66 4JA, United Kingdom", "class": "place", "type": "hamlet", "importance": 0.385, "icon": "https://locationiq.org/static/images/mapicons/poi_place_village.p.20.png"}, {"place_id": "436204", "licence": "https://locationiq.com/attribution", "osm_type": "node", "osm_id": "153919539", "boundingbox": ["31.366043", "31.406043", "-82.4734676", "-82.4334676"], "lat": "31.386043", "lon": "-82.4534676", "display_name": "Crawley, Ware County, Georgia, USA", "class": "place", "type": "hamlet", "importance": 0.385, "icon": "https://locationiq.org/static/images/mapicons/poi_place_village.p.20.png"}, {"place_id": "249989382", "licence": "https://locationiq.com/attribution", "osm_type": "node", "osm_id": "569969318", "boundingbox": ["-31.9986343", "-31.9586343", "115.797227", "115.837227"], "lat": "-31.9786343", "lon": "115.817227", "display_name": "Crawley, Perth, Western Australia, 6009, Australia", "class": "place", "type": "suburb", "importance": 0.37392466723397, "icon": "https://locationiq.org/static/images/mapicons/poi_place_village.p.20.png"}, {"place_id": "209413652", "licence": "https://locationiq.com/attribution", "osm_type": "relation", "osm_id": "4221132", "boundingbox": ["51.7963787", "51.8335547", "-1.5258576", "-1.4925415"], "lat": "51.8149337", "lon": "-1.50554113174698", "display_name": "Crawley, West Oxfordshire, Oxfordshire, South East, England, United Kingdom", "class": "boundary", "type": "administrative", "importance": 0.36, "icon": "https://locationiq.org/static/images/mapicons/poi_boundary_administrative.p.20.png"}], "Crawley ": [{"place_id": "208891710", "licence": "https://locationiq.com/attribution", "osm_type": "relation", "osm_id": "114858", "boundingbox": ["51.0848063", "51.167301", "-0.2556345", "-0.1329796"], "lat": "51.1103444", "lon": "-0.1801094", "display_name": "Crawley, West Sussex, South East, England, United Kingdom", "class": "boundary", "type": "administrative", "importance": 0.59665285887146, "icon": "https://locationiq.org/static/images/mapicons/poi_boundary_administrative.p.20.png"}, {"place_id": "109449", "licence": "https://locationiq.com/attribution", "osm_type": "node", "osm_id": "14329666", "boundingbox": ["51.7862564", "51.8262564", "-1.5266056", "-1.4866056"], "lat": "51.8062564", "lon": "-1.5066056", "display_name": "Crawley, Oxfordshire, South East, England, OX29 9TW, United Kingdom", "class": "place", "type": "village", "importance": 0.44025481034543, "icon": "https://locationiq.org/static/images/mapicons/poi_place_village.p.20.png"}, {"place_id": "458682", "licence": "https://locationiq.com/attribution", "osm_type": "node", "osm_id": "154329151", "boundingbox": ["37.9148405", "37.9548405", "-80.6720294", "-80.6320294"], "lat": "37.9348405", "lon": "-80.6520294", "display_name": "Crawley, Greenbrier County, West Virginia, 24931, USA", "class": "place", "type": "hamlet", "importance": 0.43410162999415, "icon": "https://locationiq.org/static/images/mapicons/poi_place_village.p.20.png"}, {"place_id": "209286479", "licence": "https://locationiq.com/attribution", "osm_type": "relation", "osm_id": "3333321", "boundingbox": ["51.0851525", "51.1291477", "-1.436309", "-1.352859"], "lat": "51.1073148", "lon": "-1.39820916406701", "display_name": "Crawley, Winchester, Hampshire, South East, England, United Kingdom", "class": "boundary", "type": "administrative", "importance": 0.4236646714219, "icon": "https://locationiq.org/static/images/mapicons/poi_boundary_administrative.p.20.png"}, {"place_id": "680834", "licence": "https://locationiq.com/attribution", "osm_type": "node", "osm_id": "251829586", "boundingbox": ["51.090009", "51.130009", "-1.4071527", "-1.3671527"], "lat": "51.110009", "lon": "-1.3871527", "display_name": "Crawley, Hampshire, South East, England, SO21 2PR, United Kingdom", "class": "place", "type": "village", "importance": 0.4236646714219, "icon": "https://locationiq.org/static/images/mapicons/poi_place_village.p.20.png"}, {"place_id": "16381138", "licence": "https://locationiq.com/attribution", "osm_type": "node", "osm_id": "1585249544", "boundingbox": ["50.8462456", "50.8862456", "-3.0732122", "-3.0332122"], "lat": "50.8662456", "lon": "-3.0532122", "display_name": "Crawley, Devon, South West England, England, EX14 9AX, United Kingdom", "class": "place", "type": "hamlet", "importance": 0.385, "icon": "https://locationiq.org/static/images/mapicons/poi_place_village.p.20.png"}, {"place_id": "248396138", "licence": "https://locationiq.com/attribution", "osm_type": "way", "osm_id": "669904586", "boundingbox": ["55.4418288", "55.4427939", "-1.8932734", "-1.8912068"], "lat": "55.4426637", "lon": "-1.892497", "display_name": "Crawley, Northumberland, North East England, England, NE66 4JA, United Kingdom", "class": "place", "type": "hamlet", "importance": 0.385, "icon": "https://locationiq.org/static/images/mapicons/poi_place_village.p.20.png"}, {"place_id": "436204", "licence": "https://locationiq.com/attribution", "osm_type": "node", "osm_id": "153919539", "boundingbox": ["31.366043", "31.406043", "-82.4734676", "-82.4334676"], "lat": "31.386043", "lon": "-82.4534676", "display_name": "Crawley, Ware County, Georgia, USA", "class": "place", "type": "hamlet", "importance": 0.385, "icon": "https://locationiq.org/static/images/mapicons/poi_place_village.p.20.png"}, {"place_id": "249989377", "licence": "https://locationiq.com/attribution", "osm_type": "node", "osm_id": "569969318", "boundingbox": ["-31.9986343", "-31.9586343", "115.797227", "115.837227"], "lat": "-31.9786343", "lon": "115.817227", "display_name": "Crawley, Perth, Western Australia, 6009, Australia", "class": "place", "type": "suburb", "importance": 0.37392466723397, "icon": "https://locationiq.org/static/images/mapicons/poi_place_village.p.20.png"}, {"place_id": "209413652", "licence": "https://locationiq.com/attribution", "osm_type": "relation", "osm_id": "4221132", "boundingbox": ["51.7963787", "51.8335547", "-1.5258576", "-1.4925415"], "lat": "51.8149337", "lon": "-1.50554113174698", "display_name": "Crawley, West Oxfordshire, Oxfordshire, South East, England, United Kingdom", "class": "boundary", "type": "administrative", "importance": 0.36, "icon": "https://locationiq.org/static/images/mapicons/poi_boundary_administrative.p.20.png"}], "Gatwick": [{"place_id": "1246672", "licence": "https://locationiq.com/attribution", "osm_type": "node", "osm_id": "301599896", "boundingbox": ["51.1961476", "51.1962476", "-0.691228", "-0.691128"], "lat": "51.1961976", "lon": "-0.691178", "display_name": "Gatwick, Lombard Street, Shackleford, Guildford, Surrey, South East, England, GU8 6BH, United Kingdom", "class": "building", "type": "yes", "importance": 0.111}], "Exeter": [{"place_id": "209129925", "licence": "https://locationiq.com/attribution", "osm_type": "relation", "osm_id": "2154556", "boundingbox": ["50.6731771", "50.761465", "-3.5702031", "-3.4510893"], "lat": "50.725562", "lon": "-3.5269108", "display_name": "Exeter, Devon, South West England, England, United Kingdom", "class": "place", "type": "city", "importance": 0.68438989511863, "icon": "https://locationiq.org/static/images/mapicons/poi_place_city.p.20.png"}, {"place_id": "208938173", "licence": "https://locationiq.com/attribution", "osm_type": "relation", "osm_id": "339435", "boundingbox": ["42.9567387", "43.03386", "-71.013884", "-70.887699"], "lat": "42.981477", "lon": "-70.9478343", "display_name": "Exeter, Rockingham County, New Hampshire, USA", "class": "boundary", "type": "administrative", "importance": 0.53207389979172, "icon": "https://locationiq.org/static/images/mapicons/poi_boundary_administrative.p.20.png"}, {"place_id": "209807132", "licence": "https://locationiq.com/attribution", "osm_type": "relation", "osm_id": "7539759", "boundingbox": ["41.50006", "41.6025157", "-71.7916875", "-71.507886"], "lat": "41.5774793", "lon": "-71.5376881", "display_name": "Exeter, Kent, Rhode Island, 02822, USA", "class": "boundary", "type": "administrative", "importance": 0.46, "icon": "https://locationiq.org/static/images/mapicons/poi_boundary_administrative.p.20.png"}, {"place_id": "209204880", "licence": "https://locationiq.com/attribution", "osm_type": "relation", "osm_id": "2635907", "boundingbox": ["36.268423", "36.306118", "-119.167487", "-119.127615"], "lat": "36.2960613", "lon": "-119.1420517", "display_name": "Exeter, Tulare County, California, 93221, USA", "class": "boundary", "type": "administrative", "importance": 0.44498389370501, "icon": "https://locationiq.org/static/images/mapicons/poi_boundary_administrative.p.20.png"}, {"place_id": "208914153", "licence": "https://locationiq.com/attribution", "osm_type": "relation", "osm_id": "187927", "boundingbox": ["41.30858", "41.355471", "-75.85174", "-75.794138"], "lat": "41.3206358", "lon": "-75.8190835", "display_name": "Exeter, Luzerne County, Pennsylvania, 18643, USA", "class": "boundary", "type": "administrative", "importance": 0.43876858236251, "icon": "https://locationiq.org/static/images/mapicons/poi_boundary_administrative.p.20.png"}, {"place_id": "4243100", "licence": "https://locationiq.com/attribution", "osm_type": "node", "osm_id": "480357101", "boundingbox": ["43.3036295", "43.3836295", "-81.5198184", "-81.4398184"], "lat": "43.3436295", "lon": "-81.4798184", "display_name": "Exeter, Huron County, Ontario, N0M 1S6, Canada", "class": "place", "type": "town", "importance": 0.42175576870917, "icon": "https://locationiq.org/static/images/mapicons/poi_place_town.p.20.png"}, {"place_id": "209603852", "licence": "https://locationiq.com/attribution", "osm_type": "relation", "osm_id": "6074522", "boundingbox": ["-34.6475806", "-34.5842995", "150.2155288", "150.3544528"], "lat": "-34.6135227", "lon": "150.3161142", "display_name": "Exeter, Wingecarribee Shire Council, New South Wales, 2579, Australia", "class": "boundary", "type": "administrative", "importance": 0.39518118496167, "icon": "https://locationiq.org/static/images/mapicons/poi_boundary_administrative.p.20.png"}, {"place_id": "468516", "licence": "https://locationiq.com/attribution", "osm_type": "node", "osm_id": "154311790", "boundingbox": ["36.8559276", "36.8959276", "-82.8740508", "-82.8340508"], "lat": "36.8759276", "lon": "-82.8540508", "display_name": "Exeter, Wise County, Virginia, USA", "class": "place", "type": "hamlet", "importance": 0.385, "icon": "https://locationiq.org/static/images/mapicons/poi_place_village.p.20.png"}, {"place_id": "516455", "licence": "https://locationiq.com/attribution", "osm_type": "node", "osm_id": "158919114", "boundingbox": ["41.5998208", "41.6398208", "-72.2842467", "-72.2442467"], "lat": "41.6198208", "lon": "-72.2642467", "display_name": "Exeter, New London County, Connecticut, 06249, USA", "class": "place", "type": "hamlet", "importance": 0.385, "icon": "https://locationiq.org/static/images/mapicons/poi_place_village.p.20.png"}, {"place_id": "208897112", "licence": "https://locationiq.com/attribution", "osm_type": "relation", "osm_id": "141627", "boundingbox": ["36.663593", "36.677692", "-93.954801", "-93.929402"], "lat": "36.6722899", "lon": "-93.9410358", "display_name": "Exeter, Barry County, Missouri, 65647, USA", "class": "place", "type": "city", "importance": 0.38483378640496, "icon": "https://locationiq.org/static/images/mapicons/poi_place_city.p.20.png"}], "Exeter, England": [{"place_id": "209129925", "licence": "https://locationiq.com/attribution", "osm_type": "relation", "osm_id": "2154556", "boundingbox": ["50.6731771", "50.761465", "-3.5702031", "-3.4510893"], "lat": "50.725562", "lon": "-3.5269108", "display_name": "Exeter, Devon, South West England, England, United Kingdom", "class": "place", "type": "city", "importance": 0.79438989511863, "icon": "https://locationiq.org/static/images/mapicons/poi_place_city.p.20.png"}, {"place_id": "114965906", "licence": "https://locationiq.com/attribution", "osm_type": "way", "osm_id": "155335118", "boundingbox": ["50.7268132", "50.7270047", "-3.471579", "-3.4710304"], "lat": "50.726909", "lon": "-3.47130521294541", "display_name": "The Exeter, Emperor Way, Exeter Business Park, Middlemoor, Exeter, Devon, South West England, England, EX1 3QS, United Kingdom", "class": "office", "type": "yes", "importance": 0.221}, {"place_id": "122473800", "licence": "https://locationiq.com/attribution", "osm_type": "way", "osm_id": "183906724", "boundingbox": ["50.8079719", "50.8082397", "-3.5277791", "-3.5275484"], "lat": "50.80808795", "lon": "-3.52763576220753", "display_name": "The Exeter, Bullen Street, Thorverton, Mid Devon, Devon, South West England, England, EX5 5NG, United Kingdom", "class": "amenity", "type": "pub", "importance": 0.211, "icon": "https://locationiq.org/static/images/mapicons/food_pub.p.20.png"}], "Taunton, Somerset": [{"place_id": "1232057", "licence": "https://locationiq.com/attribution", "osm_type": "node", "osm_id": "302522410", "boundingbox": ["50.9750265", "51.0550265", "-3.1429555", "-3.0629555"], "lat": "51.0150265", "lon": "-3.1029555", "display_name": "Taunton, Somerset, South West England, England, TA1 1HP, United Kingdom", "class": "place", "type": "town", "importance": 0.71822848012764, "icon": "https://locationiq.org/static/images/mapicons/poi_place_town.p.20.png"}, {"place_id": "49033587", "licence": "https://locationiq.com/attribution", "osm_type": "node", "osm_id": "3777268518", "boundingbox": ["51.0182945", "51.0282945", "-3.107674", "-3.097674"], "lat": "51.0232945", "lon": "-3.102674", "display_name": "Taunton, Station Approach, Firepool, Taunton Deane, Somerset, South West England, England, TA1 1QP, United Kingdom", "class": "railway", "type": "station", "importance": 0.56591584070199, "icon": "https://locationiq.org/static/images/mapicons/transport_train_station2.p.20.png"}], "Taunton UK": [{"place_id": "1232057", "licence": "https://locationiq.com/attribution", "osm_type": "node", "osm_id": "302522410", "boundingbox": ["50.9750265", "51.0550265", "-3.1429555", "-3.0629555"], "lat": "51.0150265", "lon": "-3.1029555", "display_name": "Taunton, Somerset, South West England, England, TA1 1HP, United Kingdom", "class": "place", "type": "town", "importance": 0.60822848012764, "icon": "https://locationiq.org/static/images/mapicons/poi_place_town.p.20.png"}, {"place_id": "49033587", "licence": "https://locationiq.com/attribution", "osm_type": "node", "osm_id": "3777268518", "boundingbox": ["51.0182945", "51.0282945", "-3.107674", "-3.097674"], "lat": "51.0232945", "lon": "-3.102674", "display_name": "Taunton, Station Approach, Firepool, Taunton Deane, Somerset, South West England, England, TA1 1QP, United Kingdom", "class": "railway", "type": "station", "importance": 0.45591584070199, "icon": "https://locationiq.org/static/images/mapicons/transport_train_station2.p.20.png"}, {"place_id": "164607", "licence": "https://locationiq.com/attribution", "osm_type": "node", "osm_id": "30877513", "boundingbox": ["53.4778369", "53.5178369", "-2.1265235", "-2.0865235"], "lat": "53.4978369", "lon": "-2.1065235", "display_name": "Taunton, Tameside, Greater Manchester, North West England, England, OL7 9LN, United Kingdom", "class": "place", "type": "suburb", "importance": 0.36, "icon": "https://locationiq.org/static/images/mapicons/poi_place_village.p.20.png"}], "exeter, devon, UK": [{"place_id": "209129925", "licence": "https://locationiq.com/attribution", "osm_type": "relation", "osm_id": "2154556", "boundingbox": ["50.6731771", "50.761465", "-3.5702031", "-3.4510893"], "lat": "50.725562", "lon": "-3.5269108", "display_name": "Exeter, Devon, South West England, England, United Kingdom", "class": "place", "type": "city", "importance": 0.77438989511863, "icon": "https://locationiq.org/static/images/mapicons/poi_place_city.p.20.png"}, {"place_id": "114965906", "licence": "https://locationiq.com/attribution", "osm_type": "way", "osm_id": "155335118", "boundingbox": ["50.7268132", "50.7270047", "-3.471579", "-3.4710304"], "lat": "50.726909", "lon": "-3.47130521294541", "display_name": "The Exeter, Emperor Way, Exeter Business Park, Middlemoor, Exeter, Devon, South West England, England, EX1 3QS, United Kingdom", "class": "office", "type": "yes", "importance": 0.201}, {"place_id": "122473800", "licence": "https://locationiq.com/attribution", "osm_type": "way", "osm_id": "183906724", "boundingbox": ["50.8079719", "50.8082397", "-3.5277791", "-3.5275484"], "lat": "50.80808795", "lon": "-3.52763576220753", "display_name": "The Exeter, Bullen Street, Thorverton, Mid Devon, Devon, South West England, England, EX5 5NG, United Kingdom", "class": "amenity", "type": "pub", "importance": 0.201, "icon": "https://locationiq.org/static/images/mapicons/food_pub.p.20.png"}]}