{"New Brighton UK": [{"place_id": "16901491", "licence": "https://locationiq.com/attribution", "osm_type": "node", "osm_id": "1669450062", "boundingbox": ["53.4323879", "53.4423879", "-3.0530464", "-3.0430464"], "lat": "53.4373879", "lon": "-3.0480464", "display_name": "New Brighton, Victoria Road, Liscard, Wirral, North West England, England, CH45 9LZ, United Kingdom", "class": "railway", "type": "station", "importance": 0.52410162999415, "icon": "https://locationiq.org/static/images/mapicons/transport_train_station2.p.20.png"}, {"place_id": "17047509", "licence": "https://locationiq.com/attribution", "osm_type": "node", "osm_id": "1669042349", "boundingbox": ["53.3985649", "53.4785649", "-3.083422", "-3.003422"], "lat": "53.4385649", "lon": "-3.043422", "display_name": "New Brighton, North West England, England, CH45 2JN, United Kingdom", "class": "place", "type": "town", "importance": 0.52301894165642, "icon": "https://locationiq.org/static/images/mapicons/poi_place_town.p.20.png"}, {"place_id": "4659636", "licence": "https://locationiq.com/attribution", "osm_type": "node", "osm_id": "538360977", "boundingbox": ["53.0301055", "53.0701055", "-3.1035704", "-3.0635704"], "lat": "53.0501055", "lon": "-3.0835704", "display_name": "New Brighton, Wrexham, Wales, LL11 3EE, United Kingdom", "class": "place", "type": "village", "importance": 0.475, "icon": "https://locationiq.org/static/images/mapicons/poi_place_village.p.20.png"}, {"place_id": "891310", "licence": "https://locationiq.com/attribution", "osm_type": "node", "osm_id": "287103543", "boundingbox": ["53.1605436", "53.2005436", "-3.1384981", "-3.0984981"], "lat": "53.1805436", "lon": "-3.1184981", "display_name": "New Brighton, Flintshire, Wales, CH7 6QT, United Kingdom", "class": "place", "type": "village", "importance": 0.33958297447186, "icon": "https://locationiq.org/static/images/mapicons/poi_place_village.p.20.png"}, {"place_id": "99573831", "licence": "https://locationiq.com/attribution", "osm_type": "way", "osm_id": "93407050", "boundingbox": ["53.7479099", "53.7481868", "-1.7421946", "-1.7409388"], "lat": "53.7480401", "lon": "-1.7415292", "display_name": "New Brighton, Bierley, Bradford, Yorkshire and the Humber, England, BD12 7DB, United Kingdom", "class": "highway", "type": "residential", "importance": 0.3}, {"place_id": "88136788", "licence": "https://locationiq.com/attribution", "osm_type": "way", "osm_id": "34696977", "boundingbox": ["53.8246081", "53.8258685", "-1.8166088", "-1.8165604"], "lat": "53.8258685", "lon": "-1.8165604", "display_name": "New Brighton, Bingley, Bradford, Yorkshire and the Humber, England, BD16 1UR, United Kingdom", "class": "highway", "type": "residential", "importance": 0.3}, {"place_id": "90604887", "licence": "https://locationiq.com/attribution", "osm_type": "way", "osm_id": "42982767", "boundingbox": ["53.0493043", "53.052655", "-3.0881303", "-3.0834962"], "lat": "53.0510522", "lon": "-3.0858209", "display_name": "New Brighton, Wrexham, Wales, LL11 3EE, United Kingdom", "class": "highway", "type": "residential", "importance": 0.3}, {"place_id": "90605035", "licence": "https://locationiq.com/attribution", "osm_type": "way", "osm_id": "42982768", "boundingbox": ["53.0497014", "53.0501917", "-3.084874", "-3.0847471"], "lat": "53.0498841", "lon": "-3.0848073", "display_name": "New Brighton, Wrexham, Wales, LL11 3DT, United Kingdom", "class": "highway", "type": "residential", "importance": 0.3}, {"place_id": "48627143", "licence": "https://locationiq.com/attribution", "osm_type": "node", "osm_id": "3734364931", "boundingbox": ["55.9526616", "55.9527616", "-3.1149345", "-3.1148345"], "lat": "55.9527116", "lon": "-3.1148845", "display_name": "New Brighton, 6, Brighton Place, The Durhams, Portobello, Edinburgh, City of Edinburgh, Scotland, EH15 1LL, United Kingdom", "class": "place", "type": "house", "importance": 0.201}], "Liverpool. UK": [{"place_id": "208905982", "licence": "https://locationiq.com/attribution", "osm_type": "relation", "osm_id": "172987", "boundingbox": ["53.3115427", "53.4749673", "-3.0191726", "-2.8180003"], "lat": "53.407154", "lon": "-2.991665", "display_name": "Liverpool, North West England, England, United Kingdom", "class": "place", "type": "city", "importance": 0.80279807327678, "icon": "https://locationiq.org/static/images/mapicons/poi_place_city.p.20.png"}, {"place_id": "310994", "licence": "https://locationiq.com/attribution", "osm_type": "node", "osm_id": "101433399", "boundingbox": ["53.4049173", "53.4050173", "-2.9916584", "-2.9915584"], "lat": "53.4049673", "lon": "-2.9916084", "display_name": "The Liverpool, James Street, Ropewalks, Liverpool, North West England, England, L2 7LX, United Kingdom", "class": "amenity", "type": "pub", "importance": 0.111, "icon": "https://locationiq.org/static/images/mapicons/food_pub.p.20.png"}], "Wirral, UK": [{"place_id": "208902781", "licence": "https://locationiq.com/attribution", "osm_type": "relation", "osm_id": "162456", "boundingbox": ["53.2863611", "53.4565131", "-3.2637606", "-2.90317"], "lat": "53.3409714", "lon": "-3.0500916", "display_name": "Wirral, North West England, England, United Kingdom", "class": "boundary", "type": "administrative", "importance": 0.54267037181301, "icon": "https://locationiq.org/static/images/mapicons/poi_boundary_administrative.p.20.png"}], "St Helens, Merseyside": [{"place_id": "333565988697", "licence": "https://locationiq.com/attribution", "lat": "53.460087", "lon": "-2.73393", "display_name": "St. Helens, United Kingdom", "boundingbox": ["53.385418", "53.53146", "-2.824946", "-2.576719"], "importance": 0.075}, {"place_id": "333472908605", "licence": "https://locationiq.com/attribution", "lat": "53.456814", "lon": "-2.743636", "display_name": "St Helens, St. Helens, United Kingdom", "boundingbox": ["53.403619", "53.4861225", "-2.79456874418", "-2.6328705"], "importance": 0.25}, {"place_id": "332631046240", "licence": "https://locationiq.com/attribution", "lat": "53.420479", "lon": "-2.795172", "display_name": "St Helens, Knowsley, United Kingdom", "boundingbox": ["53.402111", "53.4342543194", "-2.8168405", "-2.77637923778"], "importance": 0.25}, {"place_id": "330006283912", "licence": "https://locationiq.com/attribution", "lat": "45.855525", "lon": "-122.810096", "display_name": "St. Helens, Columbia County, Oregon, United States", "boundingbox": ["45.833431", "45.884258", "-122.855756", "-122.785026"], "importance": 0.25}, {"place_id": "332114925606", "licence": "https://locationiq.com/attribution", "lat": "-41.345191", "lon": "148.26985", "display_name": "St Helens, Break O'Day, Tasmania, Australia", "boundingbox": ["-41.350832191", "-41.309429339", "148.231705984", "148.283351616"], "importance": 0.25}, {"place_id": "332114925606", "licence": "https://locationiq.com/attribution", "lat": "-41.268095", "lon": "148.226484", "display_name": "St Helens, Break O'Day, Tasmania, Australia", "boundingbox": ["-41.420874005", "-41.0982567785", "148.091740992", "148.340818944"], "importance": 0.25}, {"place_id": "331855317263", "licence": "https://locationiq.com/attribution", "lat": "50.699721", "lon": "-1.106747", "display_name": "St. Helens, Isle of Wight, United Kingdom", "boundingbox": ["50.6919875005", "50.7123722785", "-1.12148829925", "-1.08309445324"], "importance": 0.25}, {"place_id": "333380791694", "licence": "https://locationiq.com/attribution", "lat": "52.22556", "lon": "-6.33556", "display_name": "St Helen's, Wexford, Ireland", "boundingbox": ["52.22556", "52.22556", "-6.33556", "-6.33556"], "importance": 0.25}, {"place_id": "331459370551", "licence": "https://locationiq.com/attribution", "lat": "47.259258", "lon": "-122.445789", "display_name": "St Helens, Tacoma, Pierce County, Washington, United States", "boundingbox": ["47.2592582222", "47.2592582222", "-122.445789487", "-122.445789487"], "importance": 0.15}], "Liverpool, UK": [{"place_id": "208905982", "licence": "https://locationiq.com/attribution", "osm_type": "relation", "osm_id": "172987", "boundingbox": ["53.3115427", "53.4749673", "-3.0191726", "-2.8180003"], "lat": "53.407154", "lon": "-2.991665", "display_name": "Liverpool, North West England, England, United Kingdom", "class": "place", "type": "city", "importance": 0.80279807327678, "icon": "https://locationiq.org/static/images/mapicons/poi_place_city.p.20.png"}, {"place_id": "310994", "licence": "https://locationiq.com/attribution", "osm_type": "node", "osm_id": "101433399", "boundingbox": ["53.4049173", "53.4050173", "-2.9916584", "-2.9915584"], "lat": "53.4049673", "lon": "-2.9916084", "display_name": "The Liverpool, James Street, Ropewalks, Liverpool, North West England, England, L2 7LX, United Kingdom", "class": "amenity", "type": "pub", "importance": 0.111, "icon": "https://locationiq.org/static/images/mapicons/food_pub.p.20.png"}], "wirral": [{"place_id": "208902781", "licence": "https://locationiq.com/attribution", "osm_type": "relation", "osm_id": "162456", "boundingbox": ["53.2863611", "53.4565131", "-3.2637606", "-2.90317"], "lat": "53.3409714", "lon": "-3.0500916", "display_name": "Wirral, North West England, England, United Kingdom", "class": "boundary", "type": "administrative", "importance": 0.53267037181301, "icon": "https://locationiq.org/static/images/mapicons/poi_boundary_administrative.p.20.png"}, {"place_id": "16002381", "licence": "https://locationiq.com/attribution", "osm_type": "node", "osm_id": "1518555200", "boundingbox": ["45.5032254", "45.5232254", "-66.5001558", "-66.4801558"], "lat": "45.5132254", "lon": "-66.4901558", "display_name": "Wirral, Queens County, New Brunswick, Canada", "class": "place", "type": "locality", "importance": 0.33470384519613, "icon": "https://locationiq.org/static/images/mapicons/poi_place_village.p.20.png"}], "Maghull, Liverpool, England": [{"place_id": "4593448", "licence": "https://locationiq.com/attribution", "osm_type": "node", "osm_id": "533862803", "boundingbox": ["53.5138374", "53.5139374", "-2.9450351", "-2.9449351"], "lat": "53.5138874", "lon": "-2.9449851", "display_name": "LIVERPOOL ROAD NORTH/MAGHULL LIBRARY, Liverpool Road North, Moss Side, Maghull, Sefton, North West England, England, L31 7BA, United Kingdom", "class": "highway", "type": "bus_stop", "importance": 0.321, "icon": "https://locationiq.org/static/images/mapicons/transport_bus_stop2.p.20.png"}], "Birkenhead": [{"place_id": "137471", "licence": "https://locationiq.com/attribution", "osm_type": "node", "osm_id": "26703037", "boundingbox": ["53.3543509", "53.4343509", "-3.0591569", "-2.9791569"], "lat": "53.3943509", "lon": "-3.0191569", "display_name": "Birkenhead, North West England, England, CH41 6JB, United Kingdom", "class": "place", "type": "town", "importance": 0.63481386526251, "icon": "https://locationiq.org/static/images/mapicons/poi_place_town.p.20.png"}, {"place_id": "209965340", "licence": "https://locationiq.com/attribution", "osm_type": "relation", "osm_id": "9051283", "boundingbox": ["-34.8421463", "-34.8326045", "138.4918559", "138.5075758"], "lat": "-34.836756", "lon": "138.5002312", "display_name": "Birkenhead, City of Port Adelaide Enfield, South Australia, 5015, Australia", "class": "boundary", "type": "administrative", "importance": 0.40244504582027, "icon": "https://locationiq.org/static/images/mapicons/poi_boundary_administrative.p.20.png"}, {"place_id": "7804442", "licence": "https://locationiq.com/attribution", "osm_type": "node", "osm_id": "877075211", "boundingbox": ["-36.8187097", "-36.7787097", "174.6924758", "174.7324758"], "lat": "-36.7987097", "lon": "174.7124758", "display_name": "Birkenhead, Kaipatiki, Auckland, 0626, New Zealand", "class": "place", "type": "suburb", "importance": 0.36247139157771, "icon": "https://locationiq.org/static/images/mapicons/poi_place_village.p.20.png"}, {"place_id": "86980283", "licence": "https://locationiq.com/attribution", "osm_type": "way", "osm_id": "31561989", "boundingbox": ["-34.0199507", "-34.0193497", "18.7271541", "18.7284953"], "lat": "-34.0195381", "lon": "18.7280763", "display_name": "Birkenhead, High Places, Cape Town Ward 16, Eersterivier, City of Cape Town, Western Cape, 7784, RSA", "class": "highway", "type": "residential", "importance": 0.21}], "Wirral, Merseyside": [{"place_id": "27135519", "licence": "https://locationiq.com/attribution", "osm_type": "node", "osm_id": "2610985607", "boundingbox": ["53.4009724", "53.4010724", "-3.0566211", "-3.0565211"], "lat": "53.4010224", "lon": "-3.0565711", "display_name": "Merseyside Police Laird Street, Vulcan Street, Claughton, Wirral, North West England, England, CH41 8DD, United Kingdom", "class": "amenity", "type": "police", "importance": 0.211, "icon": "https://locationiq.org/static/images/mapicons/amenity_police2.p.20.png"}, {"place_id": "134617581", "licence": "https://locationiq.com/attribution", "osm_type": "way", "osm_id": "232703237", "boundingbox": ["53.4006029", "53.4011118", "-3.0429244", "-3.0420677"], "lat": "53.40085175", "lon": "-3.04251843740041", "display_name": "Merseyside Police Wirral Custody Suite, Dawson Avenue, Claughton, Wirral, North West England, England, CH41 8ED, United Kingdom", "class": "amenity", "type": "police", "importance": 0.211, "icon": "https://locationiq.org/static/images/mapicons/amenity_police2.p.20.png"}, {"place_id": "401997", "licence": "https://locationiq.com/attribution", "osm_type": "node", "osm_id": "152992207", "boundingbox": ["53.3569618", "53.3570618", "-3.0033648", "-3.0032648"], "lat": "53.3570118", "lon": "-3.0033148", "display_name": "Merseyside Martial Arts, Old Chester Road, Lower Bebington, Wirral, North West England, England, CH63 7NG, United Kingdom", "class": "amenity", "type": "taxi", "importance": 0.211}], "Merseyside, England, UK": [{"place_id": "208898925", "licence": "https://locationiq.com/attribution", "osm_type": "relation", "osm_id": "147564", "boundingbox": ["53.2863611", "53.7043618", "-3.2637606", "-2.576626"], "lat": "53.4953602", "lon": "-2.97393796008601", "display_name": "Merseyside, Northern Perimeter Road, Netherton, Sefton, North West England, England, L30 0RE, United Kingdom", "class": "boundary", "type": "ceremonial", "importance": 0.82272841763205}], "Wirral,uk": [{"place_id": "208902781", "licence": "https://locationiq.com/attribution", "osm_type": "relation", "osm_id": "162456", "boundingbox": ["53.2863611", "53.4565131", "-3.2637606", "-2.90317"], "lat": "53.3409714", "lon": "-3.0500916", "display_name": "Wirral, North West England, England, United Kingdom", "class": "boundary", "type": "administrative", "importance": 0.54267037181301, "icon": "https://locationiq.org/static/images/mapicons/poi_boundary_administrative.p.20.png"}], "Wallasey, England": [{"place_id": "136624", "licence": "https://locationiq.com/attribution", "osm_type": "node", "osm_id": "26703036", "boundingbox": ["53.3841208", "53.4641208", "-3.0794101", "-2.9994101"], "lat": "53.4241208", "lon": "-3.0394101", "display_name": "Wallasey, North West England, England, CH45 7NE, United Kingdom", "class": "place", "type": "town", "importance": 0.63991860837549, "icon": "https://locationiq.org/static/images/mapicons/poi_place_town.p.20.png"}, {"place_id": "13841630", "licence": "https://locationiq.com/attribution", "osm_type": "node", "osm_id": "1259849825", "boundingbox": ["53.3918689", "53.3919689", "-3.1345166", "-3.1344166"], "lat": "53.3919189", "lon": "-3.1344666", "display_name": "Wirral VOR, Barnacre Lane, Meols, Wirral, North West England, England, CH46 5NH, United Kingdom", "class": "man_made", "type": "beacon", "importance": 0.111}], "Liverpool, uk": [{"place_id": "208905982", "licence": "https://locationiq.com/attribution", "osm_type": "relation", "osm_id": "172987", "boundingbox": ["53.3115427", "53.4749673", "-3.0191726", "-2.8180003"], "lat": "53.407154", "lon": "-2.991665", "display_name": "Liverpool, North West England, England, United Kingdom", "class": "place", "type": "city", "importance": 0.80279807327678, "icon": "https://locationiq.org/static/images/mapicons/poi_place_city.p.20.png"}, {"place_id": "310994", "licence": "https://locationiq.com/attribution", "osm_type": "node", "osm_id": "101433399", "boundingbox": ["53.4049173", "53.4050173", "-2.9916584", "-2.9915584"], "lat": "53.4049673", "lon": "-2.9916084", "display_name": "The Liverpool, James Street, Ropewalks, Liverpool, North West England, England, L2 7LX, United Kingdom", "class": "amenity", "type": "pub", "importance": 0.111, "icon": "https://locationiq.org/static/images/mapicons/food_pub.p.20.png"}], "merseyside uk": [{"place_id": "208898925", "licence": "https://locationiq.com/attribution", "osm_type": "relation", "osm_id": "147564", "boundingbox": ["53.2863611", "53.7043618", "-3.2637606", "-2.576626"], "lat": "53.4953602", "lon": "-2.97393796008601", "display_name": "Merseyside, Northern Perimeter Road, Netherton, Sefton, North West England, England, L30 0RE, United Kingdom", "class": "boundary", "type": "ceremonial", "importance": 0.70272841763205}], "Wirral & Liverpool": [{"place_id": "209669244", "licence": "https://locationiq.com/attribution", "osm_type": "relation", "osm_id": "6524513", "boundingbox": ["53.4039692", "53.4048162", "-2.9955336", "-2.994214"], "lat": "53.40438275", "lon": "-2.99503436487362", "display_name": "Port of Liverpool Building, Queensway, Ropewalks, Liverpool, North West England, England, L3 1NW, United Kingdom", "class": "office", "type": "yes", "importance": 0.45025131828771}, {"place_id": "139317183", "licence": "https://locationiq.com/attribution", "osm_type": "way", "osm_id": "251735432", "boundingbox": ["53.3553592", "53.3562096", "-2.9996964", "-2.998954"], "lat": "53.3557654", "lon": "-2.99931178014018", "display_name": "Lady Lever Art Gallery, Queen Mary's Drive, Lower Bebington, Wirral, North West England, England, CH62 5DZ, United Kingdom", "class": "tourism", "type": "gallery", "importance": 0.3998123467551}, {"place_id": "72744737", "licence": "https://locationiq.com/attribution", "osm_type": "way", "osm_id": "4433428", "boundingbox": ["53.3575614", "53.3583682", "-2.9212284", "-2.9200911"], "lat": "53.3577997", "lon": "-2.920561", "display_name": "Wirral View, Grassendale, Liverpool, North West England, England, L19, United Kingdom", "class": "highway", "type": "residential", "importance": 0.31}, {"place_id": "114552418", "licence": "https://locationiq.com/attribution", "osm_type": "way", "osm_id": "153805696", "boundingbox": ["53.304875", "53.3121983", "-3.0546242", "-3.0527276"], "lat": "53.308357", "lon": "-3.0531628", "display_name": "Liverpool Road, Neston, Wirral, Cheshire West and Chester, North West England, England, CH64 7TN, United Kingdom", "class": "highway", "type": "secondary", "importance": 0.31}, {"place_id": "114937692", "licence": "https://locationiq.com/attribution", "osm_type": "way", "osm_id": "155308086", "boundingbox": ["53.4031168", "53.4073392", "-2.9953393", "-2.9795808"], "lat": "53.4052257", "lon": "-2.9888331", "display_name": "Merseyrail Wirral Line (Loop), Lord Street, Cavern Quarter, Liverpool, North West England, England, L2 9XW, United Kingdom", "class": "railway", "type": "subway", "importance": 0.211}, {"place_id": "207039488", "licence": "https://locationiq.com/attribution", "osm_type": "way", "osm_id": "651521416", "boundingbox": ["53.4084015", "53.409069", "-2.98021", "-2.9787682"], "lat": "53.4087856", "lon": "-2.9796043", "display_name": "Wirral Line, Lime Street, Ropewalks, Liverpool, North West England, England, L1, United Kingdom", "class": "railway", "type": "platform", "importance": 0.211}, {"place_id": "110779162", "licence": "https://locationiq.com/attribution", "osm_type": "way", "osm_id": "136726874", "boundingbox": ["53.396648", "53.3967482", "-3.0131602", "-3.0125992"], "lat": "53.3966602", "lon": "-3.0129452", "display_name": "Wirral Tramway, Queensway, Ropewalks, Liverpool, North West England, England, L2 4TH, United Kingdom", "class": "railway", "type": "tram", "importance": 0.211, "icon": "https://locationiq.org/static/images/mapicons/transport_tram_stop.p.20.png"}, {"place_id": "115559706", "licence": "https://locationiq.com/attribution", "osm_type": "way", "osm_id": "157730632", "boundingbox": ["53.3948092", "53.395189", "-3.0177944", "-3.0165767"], "lat": "53.39498715", "lon": "-3.01723781123535", "display_name": "Wirral Metropolitan Borough Council Treasury Building, Queensway, Ropewalks, Liverpool, North West England, England, L2 4TH, United Kingdom", "class": "building", "type": "yes", "importance": 0.211}, {"place_id": "114857339", "licence": "https://locationiq.com/attribution", "osm_type": "way", "osm_id": "155010530", "boundingbox": ["53.3748597", "53.3903189", "-3.1973489", "-3.1826151"], "lat": "53.3827517", "lon": "-3.19085844357258", "display_name": "Royal Liverpool Golf Course, Meols Drive, Meols, Wirral, North West England, England, CH47 4AL, United Kingdom", "class": "leisure", "type": "golf_course", "importance": 0.211, "icon": "https://locationiq.org/static/images/mapicons/sport_golf.p.20.png"}, {"place_id": "135520795", "licence": "https://locationiq.com/attribution", "osm_type": "way", "osm_id": "236547782", "boundingbox": ["53.4101949", "53.410456", "-3.0542843", "-3.0538145"], "lat": "53.41032545", "lon": "-3.0540494", "display_name": "Liverpool Victoria Rowing Club, Wallasey Bridge Road, Poulton, Wirral, North West England, England, CH41 1EB, United Kingdom", "class": "amenity", "type": "clubhouse", "importance": 0.211}], "Liverpool UK ": [{"place_id": "208905982", "licence": "https://locationiq.com/attribution", "osm_type": "relation", "osm_id": "172987", "boundingbox": ["53.3115427", "53.4749673", "-3.0191726", "-2.8180003"], "lat": "53.407154", "lon": "-2.991665", "display_name": "Liverpool, North West England, England, United Kingdom", "class": "place", "type": "city", "importance": 0.80279807327678, "icon": "https://locationiq.org/static/images/mapicons/poi_place_city.p.20.png"}, {"place_id": "310994", "licence": "https://locationiq.com/attribution", "osm_type": "node", "osm_id": "101433399", "boundingbox": ["53.4049173", "53.4050173", "-2.9916584", "-2.9915584"], "lat": "53.4049673", "lon": "-2.9916084", "display_name": "The Liverpool, James Street, Ropewalks, Liverpool, North West England, England, L2 7LX, United Kingdom", "class": "amenity", "type": "pub", "importance": 0.111, "icon": "https://locationiq.org/static/images/mapicons/food_pub.p.20.png"}], "liverpool ": [{"place_id": "208905982", "licence": "https://locationiq.com/attribution", "osm_type": "relation", "osm_id": "172987", "boundingbox": ["53.3115427", "53.4749673", "-3.0191726", "-2.8180003"], "lat": "53.407154", "lon": "-2.991665", "display_name": "Liverpool, North West England, England, United Kingdom", "class": "place", "type": "city", "importance": 0.79279807327678, "icon": "https://locationiq.org/static/images/mapicons/poi_place_city.p.20.png"}, {"place_id": "209567695", "licence": "https://locationiq.com/attribution", "osm_type": "relation", "osm_id": "5539566", "boundingbox": ["-33.9390263", "-33.9039063", "150.8981118", "150.9344368"], "lat": "-33.9198252", "lon": "150.92566", "display_name": "Liverpool, Sydney, Liverpool City Council, New South Wales, 2170, Australia", "class": "boundary", "type": "administrative", "importance": 0.48571516302754, "icon": "https://locationiq.org/static/images/mapicons/poi_boundary_administrative.p.20.png"}, {"place_id": "209624991", "licence": "https://locationiq.com/attribution", "osm_type": "relation", "osm_id": "6212442", "boundingbox": ["-34.0410771", "-33.864084", "150.617794", "150.9937843"], "lat": "-33.95258865", "lon": "150.898858526136", "display_name": "Liverpool City Council, New South Wales, Australia", "class": "boundary", "type": "administrative", "importance": 0.45697998354854, "icon": "https://locationiq.org/static/images/mapicons/poi_boundary_administrative.p.20.png"}, {"place_id": "202978561", "licence": "https://locationiq.com/attribution", "osm_type": "way", "osm_id": "621869505", "boundingbox": ["44.0229507", "44.0502256", "-64.7394302", "-64.6981559"], "lat": "44.037448", "lon": "-64.7137051", "display_name": "Liverpool, Region of Queens Municipality, Queens County, Nova Scotia, B0T 1K0, Canada", "class": "boundary", "type": "administrative", "importance": 0.45, "icon": "https://locationiq.org/static/images/mapicons/poi_boundary_administrative.p.20.png"}, {"place_id": "208905927", "licence": "https://locationiq.com/attribution", "osm_type": "relation", "osm_id": "174912", "boundingbox": ["43.096093", "43.114733", "-76.22297", "-76.198718"], "lat": "43.106456", "lon": "-76.217705", "display_name": "Liverpool, Town of Salina, Onondaga County, New York, USA", "class": "boundary", "type": "administrative", "importance": 0.44932010253427, "icon": "https://locationiq.org/static/images/mapicons/poi_boundary_administrative.p.20.png"}, {"place_id": "208886619", "licence": "https://locationiq.com/attribution", "osm_type": "relation", "osm_id": "126187", "boundingbox": ["40.387996", "40.392478", "-90.007934", "-89.997411"], "lat": "40.3917076", "lon": "-90.0009491", "display_name": "Liverpool, Fulton County, Illinois, 61543, USA", "class": "boundary", "type": "administrative", "importance": 0.39741955987991, "icon": "https://locationiq.org/static/images/mapicons/poi_boundary_administrative.p.20.png"}, {"place_id": "208912888", "licence": "https://locationiq.com/attribution", "osm_type": "relation", "osm_id": "188455", "boundingbox": ["40.558885", "40.585673", "-77.003788", "-76.97707"], "lat": "40.5764798", "lon": "-76.9916022", "display_name": "Liverpool, Perry County, Pennsylvania, 17045, USA", "class": "boundary", "type": "administrative", "importance": 0.38891132353959, "icon": "https://locationiq.org/static/images/mapicons/poi_boundary_administrative.p.20.png"}, {"place_id": "209679316", "licence": "https://locationiq.com/attribution", "osm_type": "relation", "osm_id": "6586792", "boundingbox": ["29.2901997", "29.3293277", "-95.2937843", "-95.2511543"], "lat": "29.2949612", "lon": "-95.2788231", "display_name": "Liverpool, Brazoria County, Texas, 77577, USA", "class": "place", "type": "city", "importance": 0.38020667090203, "icon": "https://locationiq.org/static/images/mapicons/poi_place_city.p.20.png"}, {"place_id": "414976", "licence": "https://locationiq.com/attribution", "osm_type": "node", "osm_id": "153561240", "boundingbox": ["41.5325367", "41.5725367", "-87.3147587", "-87.2747587"], "lat": "41.5525367", "lon": "-87.2947587", "display_name": "Liverpool, Lake County, Indiana, 46405, USA", "class": "place", "type": "hamlet", "importance": 0.375, "icon": "https://locationiq.org/static/images/mapicons/poi_place_village.p.20.png"}, {"place_id": "424167", "licence": "https://locationiq.com/attribution", "osm_type": "node", "osm_id": "153713944", "boundingbox": ["32.3468079", "32.3868079", "-85.7982873", "-85.7582873"], "lat": "32.3668079", "lon": "-85.7782873", "display_name": "Liverpool, Macon County, Alabama, USA", "class": "place", "type": "hamlet", "importance": 0.375, "icon": "https://locationiq.org/static/images/mapicons/poi_place_village.p.20.png"}], "Merseyside, UK": [{"place_id": "208898925", "licence": "https://locationiq.com/attribution", "osm_type": "relation", "osm_id": "147564", "boundingbox": ["53.2863611", "53.7043618", "-3.2637606", "-2.576626"], "lat": "53.4953602", "lon": "-2.97393796008601", "display_name": "Merseyside, Northern Perimeter Road, Netherton, Sefton, North West England, England, L30 0RE, United Kingdom", "class": "boundary", "type": "ceremonial", "importance": 0.71272841763205}], "Liverpool England": [{"place_id": "208905982", "licence": "https://locationiq.com/attribution", "osm_type": "relation", "osm_id": "172987", "boundingbox": ["53.3115427", "53.4749673", "-3.0191726", "-2.8180003"], "lat": "53.407154", "lon": "-2.991665", "display_name": "Liverpool, North West England, England, United Kingdom", "class": "place", "type": "city", "importance": 0.91279807327678, "icon": "https://locationiq.org/static/images/mapicons/poi_place_city.p.20.png"}, {"place_id": "310994", "licence": "https://locationiq.com/attribution", "osm_type": "node", "osm_id": "101433399", "boundingbox": ["53.4049173", "53.4050173", "-2.9916584", "-2.9915584"], "lat": "53.4049673", "lon": "-2.9916084", "display_name": "The Liverpool, James Street, Ropewalks, Liverpool, North West England, England, L2 7LX, United Kingdom", "class": "amenity", "type": "pub", "importance": 0.221, "icon": "https://locationiq.org/static/images/mapicons/food_pub.p.20.png"}], "Merseyside, United Kingdom": [{"place_id": "208898925", "licence": "https://locationiq.com/attribution", "osm_type": "relation", "osm_id": "147564", "boundingbox": ["53.2863611", "53.7043618", "-3.2637606", "-2.576626"], "lat": "53.4953602", "lon": "-2.97393796008601", "display_name": "Merseyside, Northern Perimeter Road, Netherton, Sefton, North West England, England, L30 0RE, United Kingdom", "class": "boundary", "type": "ceremonial", "importance": 0.91272841763205}], "Formby, Merseyside": [{"place_id": "137312", "licence": "https://locationiq.com/attribution", "osm_type": "node", "osm_id": "26703035", "boundingbox": ["53.5163035", "53.5963035", "-3.1056565", "-3.0256565"], "lat": "53.5563035", "lon": "-3.0656565", "display_name": "Formby, North West England, England, L37 3HU, United Kingdom", "class": "place", "type": "town", "importance": 0.50454431737364, "icon": "https://locationiq.org/static/images/mapicons/poi_place_town.p.20.png"}], "Wirral UK": [{"place_id": "208902781", "licence": "https://locationiq.com/attribution", "osm_type": "relation", "osm_id": "162456", "boundingbox": ["53.2863611", "53.4565131", "-3.2637606", "-2.90317"], "lat": "53.3409714", "lon": "-3.0500916", "display_name": "Wirral, North West England, England, United Kingdom", "class": "boundary", "type": "administrative", "importance": 0.54267037181301, "icon": "https://locationiq.org/static/images/mapicons/poi_boundary_administrative.p.20.png"}], "Birkenhead ": [{"place_id": "137471", "licence": "https://locationiq.com/attribution", "osm_type": "node", "osm_id": "26703037", "boundingbox": ["53.3543509", "53.4343509", "-3.0591569", "-2.9791569"], "lat": "53.3943509", "lon": "-3.0191569", "display_name": "Birkenhead, North West England, England, CH41 6JB, United Kingdom", "class": "place", "type": "town", "importance": 0.63481386526251, "icon": "https://locationiq.org/static/images/mapicons/poi_place_town.p.20.png"}, {"place_id": "209965340", "licence": "https://locationiq.com/attribution", "osm_type": "relation", "osm_id": "9051283", "boundingbox": ["-34.8421463", "-34.8326045", "138.4918559", "138.5075758"], "lat": "-34.836756", "lon": "138.5002312", "display_name": "Birkenhead, City of Port Adelaide Enfield, South Australia, 5015, Australia", "class": "boundary", "type": "administrative", "importance": 0.40244504582027, "icon": "https://locationiq.org/static/images/mapicons/poi_boundary_administrative.p.20.png"}, {"place_id": "7804442", "licence": "https://locationiq.com/attribution", "osm_type": "node", "osm_id": "877075211", "boundingbox": ["-36.8187097", "-36.7787097", "174.6924758", "174.7324758"], "lat": "-36.7987097", "lon": "174.7124758", "display_name": "Birkenhead, Kaipatiki, Auckland, 0626, New Zealand", "class": "place", "type": "suburb", "importance": 0.36247139157771, "icon": "https://locationiq.org/static/images/mapicons/poi_place_village.p.20.png"}, {"place_id": "86980283", "licence": "https://locationiq.com/attribution", "osm_type": "way", "osm_id": "31561989", "boundingbox": ["-34.0199507", "-34.0193497", "18.7271541", "18.7284953"], "lat": "-34.0195381", "lon": "18.7280763", "display_name": "Birkenhead, High Places, Cape Town Ward 16, Eersterivier, City of Cape Town, Western Cape, 7784, RSA", "class": "highway", "type": "residential", "importance": 0.21}], "Merseyside, UK.": [{"place_id": "208898925", "licence": "https://locationiq.com/attribution", "osm_type": "relation", "osm_id": "147564", "boundingbox": ["53.2863611", "53.7043618", "-3.2637606", "-2.576626"], "lat": "53.4953602", "lon": "-2.97393796008601", "display_name": "Merseyside, Northern Perimeter Road, Netherton, Sefton, North West England, England, L30 0RE, United Kingdom", "class": "boundary", "type": "ceremonial", "importance": 0.71272841763205}], "Merseyside ": [{"place_id": "208898925", "licence": "https://locationiq.com/attribution", "osm_type": "relation", "osm_id": "147564", "boundingbox": ["53.2863611", "53.7043618", "-3.2637606", "-2.576626"], "lat": "53.4953602", "lon": "-2.97393796008601", "display_name": "Merseyside, Northern Perimeter Road, Netherton, Sefton, North West England, England, L30 0RE, United Kingdom", "class": "boundary", "type": "ceremonial", "importance": 0.71272841763205}, {"place_id": "252169787", "licence": "https://locationiq.com/attribution", "osm_type": "node", "osm_id": "6384671279", "boundingbox": ["43.6583416", "43.6584416", "-79.4532206", "-79.4531206"], "lat": "43.6583916", "lon": "-79.4531706", "display_name": "The Merseyside, 2413, Dundas Street West, Wallace Walk, Old Toronto, Toronto, Ontario, M6P, Canada", "class": "amenity", "type": "cafe", "importance": 0.101, "icon": "https://locationiq.org/static/images/mapicons/food_cafe.p.20.png"}]}